business_id,name,latitude,longitude,business_stars,review_count,is_open
XQfwVwDr-v0ZS3_CbbE5Xw,Turning Point of North Wales,40.2101961875,-75.2236385919,3.0,169,1
YjUWPpI6HXG530lwP-fb2A,Kettle Restaurant,32.2072326,-110.9808639,3.5,47,1
kxX2SOes4o-D3ZQBkiMRfA,Zaika,40.0798480557,-75.025079772,4.0,181,1
e4Vwtrqf-wpJfwesgvdgxQ,Melt,29.962102,-90.087958,4.0,32,0
04UD14gamNjLY0IDYVhHJg,Dmitri's,39.9380132,-75.1481307,4.0,273,0
LHSTtnW3YHCeUkRDGyJOyw,Fries Rebellion,40.4075374562,-75.3388251276,3.5,103,0
gebiRewfieSdtt17PTW6Zg,Hibachi Steak House & Sushi Bar,34.4169836,-119.6955563,3.5,488,1
RZtGWDLCAtuipwaZ-UfjmQ,LaScala's,39.949529,-75.152139,3.5,367,0
otQS34_MymijPTdNBoBdCw,BK Tacos,32.2558336,-110.9605596,4.0,492,1
rBdG_23USc7DletfZ11xGA,Olio,38.6195426345,-90.2558054466,4.0,398,1
ut6fi2W2YaipNOqvi7e0jw,Upland Carmel Tap House,39.9569253992,-86.142973568,4.0,244,1
cPepkJeRMtHapc_b2Oe_dw,Naked Tchopstix Express,39.912505,-86.211285,3.5,33,0
c-IgS6Pk6vMyax7Rbr38eA,Barbecue and Bourbon,39.7854250831,-86.241454035,4.0,284,1
S2Ho8yLxhKAa26pBAm6rxA,Creole House Restaurant & Oyster Bar,29.9522129,-90.0671158,4.0,1594,1
MWmXGQ98KbRo3vsS5nZhMA,Anthony's at Paxon Hollow,39.958108,-75.371118,3.5,32,1
bMratNjTG5ZFEA6hVyr-xQ,Portobello Cafe,39.865032,-75.3440508,4.0,137,1
bbEXAEFr4RYHLlZ-HFssTA,The Original Habit Burger Grill,34.4355701009,-119.8247056485,4.0,329,1
kq5Ghhh14r-eCxlVmlyd8w,The Coventry Deli,39.953291,-75.173645,4.0,65,1
hKameFsaXh9g8WQbv593UA,Aquafinz,28.1900210385,-82.5404296573,3.5,86,0
A2q7d-CBM2-81tVkmS4JMw,The Buffet,39.5287886,-119.8143539,3.5,594,0
oBhJuukGRqPVvYBfTkhuZA,Square 1682,39.9508011,-75.1686108,3.5,385,1
eaJCpC6IhYphj7bwCDHTwQ,Three Brothers Coffee,36.1448084,-86.8122664,4.5,249,1
W4ZEKkva9HpAdZG88juwyQ,Mr. B's Bistro,29.954386799999998,-90.0683629,4.0,2064,1
jNL5KUPz2-tHUJM__ysSaw,El Chicanito Mexican Restaurant,28.2976303,-82.7068325,4.0,10,0
EtKSTHV5Qx_Q7Aur9o4kQQ,Village Whiskey,39.9514165949,-75.1737677917,4.0,1553,1
SSZDGl2J-CEyIzuIbEiYNQ,Caleco's Bar & Grill,38.62644,-90.1897829,3.0,532,0
oJ4ik-4PZe6gexxW-tSmsw,Broad Ripple Brewpub,39.8735797809,-86.142783297,3.5,378,1
6LCZLGa09Qifn6rG7-DNrg,Erawan Thai Cuisine,39.953793,-75.155832,3.5,180,0
SIoCIxjn4jLt2O-4DajWJw,Mac's Tavern,39.949794,-75.144739,3.5,446,1
SZU9c8V2GuREDN5KgyHFJw,Santa Barbara Shellfish Company,34.4087147,-119.6850187,4.0,2404,1
O8BBn8lry8lLoIFmChceGg,Just Pizza,39.7881543,-86.2116976,3.5,20,0
HTqXI5S2XcSlh_ylx9sE6g,Termini Bros Bakery,39.9530477103,-75.1590135265,4.0,263,1
WCVFqK84i2H5EClSoow7ZA,Itty-Bitty,38.761132,-90.084759,4.5,33,0
PzhPMkaNYiKDTHoTG0r8rw,Pho Cam Ly,29.9211868,-90.0945189,4.5,178,0
Zi-F-YvyVOK0k5QD7lrLOg,Muriel's Jackson Square,29.9584576,-90.063188,4.0,1963,1
Wy8Hswf2cLQGRZN6armkag,Jack in the Box,34.4298966,-119.8687832057,1.5,86,1
5Ce3lZksYVkCbrihqylVHQ,Sushi Nara,32.222552,-110.788132,4.5,159,1
jLerIZFpe25jOUf722qzBA,Il Posto Italian Cafe,29.929404,-90.104967,4.0,120,0
3ZynJ94VpIdDlaArmEp2Rg,More Than Just Ice Cream,39.947791,-75.1603392,3.5,239,0
9gObo5ltOMo6UgsaXaHPWA,R2L,39.9516172612,-75.167190457,3.5,787,0
9OtFX3YzG5keaUMOWU1imA,Champions,36.1462072,-86.6930527,4.0,73,0
iD25g7vUG3asELjXtMGF9w,Taqueria del Sol,40.1561745,-75.140904,3.5,57,0
W7NxQw8UYFR0HLPrI08tvw,Chipotle Mexican Grill,32.250019,-110.8909246575,3.0,76,1
GyC36Pn0Q1-qHnqXys6yFg,Cracker Barrel Old Country Store,28.08118,-82.42504,3.5,108,1
D5V0Fawd6ODVgqCY8xngsw,Loews Philadelphia Hotel,39.9517461,-75.1602286,3.5,505,1
fGYnHzFr1z2kv7bPRW6VMA,Limoncello Ristorante & Caterers,39.9606394,-75.6032204,4.0,483,1
EBn3U4mpnIRLIy2lKuilRQ,Logan's Roadhouse,36.1119137436,-86.766502,2.0,120,1
FHNIvNgh3fS7VZQq2Y3dsA,Cheu Noodle Bar,39.9467949,-75.1577025,4.0,818,0
D4DZztR7vkbiED6txGUYFg,Red Kings 2 Restaurant,39.9553515,-75.1562283,3.5,68,0
jOOOrH5n2ijnsZKxzPSAiw,Chick-fil-A,36.14023653,-86.87969636,3.5,112,1
UEgiQRvpAeaq-QyEvm7Ysw,Slimms Pizza and Salads,39.9282603,-86.0256889,4.5,75,0
1QVB0_-piu0GXes87BXeGw,Daddy Dawgs Hot Dogs & Ice Cream,28.0233909196,-82.7082316316,4.5,84,1
uaipZDBSvzDzUUlazpyGCg,Minato Noodles,39.46424193,-119.7834188864,4.0,87,0
xR3inMR2KceU3b9dhkz_tw,Lascelles Granite City,38.7013281,-90.1494623,4.0,48,0
nYRFGR2C-OOhRvO8rvI4qw,Mrs Marty's Deli,39.959999486,-75.3536066,3.0,79,1
pSmOH4a3HNNpYM82J5ycLA,The Pancake Pantry,36.1369852,-86.8005383,4.0,2063,1
-ikBycdroyTLDBHR9aC3HA,Sukho Thai,36.2211712,-86.6946066,3.5,116,0
29YqJwOGEuAWqlHZxMc1OA,Paradise Cafe,34.4200355,-119.6968511,3.5,290,0
hAmuto6UndVroyd_DaD-TA,Lobster Haven,28.0300603,-82.6384793,4.0,441,1
WaRZsQEcEHwRk0T2dJ-cuA,La Casita,29.9458122,-90.0712732,4.0,202,0
eMiN8nm70jjKg8izikVWDA,Chickie's & Pete's,39.9114175,-75.1745111,3.5,590,1
eUO4QA6nL2XdCeWuD7tkww,Room 901,27.7705207676,-82.6470636204,4.0,59,0
pym7c6ZFEtmoH16xN2ApBg,Katie's Restaurant & Bar,29.9730943,-90.0959144,4.5,1289,1
s3FRhtaNU8dt-mKkLKUQaQ,RuSan's Sushi and Seafood,36.1518970081,-86.7848066755,3.0,206,0
34Eqv8jXgxg_EEwcsNgeeg,Backyard Bowls,34.4151137,-119.6944966,4.0,659,1
a1u9Bxrq_fZxl2pgqQUcJA,The Governor,29.9544553,-90.0667755,4.5,330,0
7L1kXfwU5XM6f6Jxo_L7Yg,Casa Molina Del Norte,32.2614029,-110.9440973,3.0,116,1
tJCnUtGdyPyOGt5kudLrTA,Wise Guys Pizza & Steaks,39.95703,-75.203031,3.5,22,0
bjhCtlYHrkgA5Ku8l-rB3g,Our Daily Bread,34.435812,-119.725001,3.5,106,0
hy5GpGXAna-5qrb3zNub6g,On The Border Mexican Grill & Cantina,39.9235950202,-74.9518829779,3.0,168,1
yQhu3LbnB2gQgrquHZ_S6Q,Saladworks,40.2340046,-74.9414872286,3.0,42,0
iVegX9epKU8R0eRAEwQ6Yg,Burritos Grill Mexican Fresh Cuisine,30.0387300722,-89.9769829586,4.5,75,1
P10BsKUeoeCeVoK4BS2u0w,Trust Me BBQ,27.8652573,-82.3260903,4.0,29,0
kPG6r0h73sPgXBei0MyzYg,Numchok Wilai,53.5500993,-113.5357209,4.5,86,1
mQvRi0nm84Www71d4qOheQ,Ekta Indian Cuisine,40.0238364666,-75.3226478981,4.0,193,1
v5ktgWMAARaczTMh2rAJKg,San Jose Mexican Restaurant,28.1893346665,-82.5410481178,3.0,155,1
HrIbP2-jdRJAU92yqyDmyw,Genoa Pizza and Grill,39.911312,-75.300349,4.0,24,1
WM3q-7scdPUei6fu4SJFYw,Nick's Old Original Roast Beef,39.9241063,-75.339692,4.0,143,1
WLiqfxv_GhFFA5sm878a2w,Wei Asian Cafe,32.1903953,-110.7915138,4.0,109,1
mLNSOU8Ki0Fm09xd6ZKkcA,Timpano Hyde Park,27.9370426822,-82.4760082753,3.5,380,1
QvjY9esYNRMe_5kvT6TC5g,Chaat and Chai,39.9245858,-75.1726715,4.0,50,0
3YERGr7UbpSpddqL0Eiu5g,Mariscos Chihuahua,32.3370125,-111.0542141,4.0,73,1
wa_bwyY57etHjtJ2Fw0E3g,Pita Jungle,32.2208987,-110.8789015,3.5,464,0
NdqATFd0JsFzEOD8Z8pa5w,Henry's Pub & Grill,39.994005,-86.128975,3.5,76,0
Y2rYM2crYfTC25y6iquPgw,Landmark Americana,40.0463957794,-75.4056382389,3.0,76,0
ORL4JE6tz3rJxVqkdKfegA,Gaylord Opryland Resort & Convention Center,36.2115923083,-86.6943191727,3.0,1639,1
W0vdz23JQtVQX5vJkiCj3g,Cask And Ale,27.7714260256,-82.6368627591,4.0,118,0
M0r9lUn2gLFYgIwIfG8-bQ,Baileys' Range,38.6288639,-90.1945424,3.5,1567,1
FnEkr6LzjuGsg93Z7fkl7Q,Misconduct Tavern,39.954395,-75.169849,3.0,131,1
8uF-bhJFgT4Tn6DTb27viA,District Donuts Sliders Brew,29.9294259,-90.0770687,4.5,2062,1
EDjEVzmoQVHzboFqC-M6Ew,Local Taco,36.1408887,-86.8403587,3.0,308,0
kgeiJzWSiXPnf-3wx7LHIQ,Panera Bread,43.6361060294,-116.3547924344,3.0,81,1
p3XlbP2aZa-NBRqJ4p3KLw,Seafood Time,32.2641365,-110.9449355,4.0,27,0
h8iDZcXLDicI_Wg8fwl-ig,Ybor City Food Tours,27.960471175,-82.441660943,4.5,15,1
7sKfrJmjG6unAQeWdQUe2w,Franzone's Pizzeria & Restaurant,40.026465,-75.2244958,3.5,110,1
Mha77MN_BYGB-w7DONZ5YA,Cuenelli's Peruvian Restaurant,27.9966052,-82.5243863,4.0,249,1
9OG5YkX1g2GReZM0AskizA,Romano's Macaroni Grill,39.4761165,-119.7893392,2.5,339,1
dUctvEfHQccW_uxtRup2QQ,Tsunami Japanese Steakhouse,27.7899621,-82.7262212,3.0,212,1
5ezrDoezdUlJpUa5Jg6dUQ,In the Valley,39.929453,-75.1636243,4.0,73,1
_uyLoz0BbrQIVmUEm_td1Q,Jimmy The Greek's,38.8879587,-90.1582947,3.0,33,0
qdpdUjdkEUpzYDdce2yZng,Plaza Deli,34.436708,-119.748708,4.0,188,1
WKMJwqnfZKsAae75RMP6jA,Roast Coffeehouse and Wine Bar,53.5460453,-113.4991693,4.0,40,0
ehnMcJZlx29XMroxMd3-mQ,Spice-n-Grill,38.6630131,-90.3113611,4.5,157,0
fgTOJRkc703E4XRdcr5zRA,Chatime - Bubble Tea Cafe,32.2641365,-110.9449355,3.5,182,1
0Kn5W22UmxOqPj2cjouFNA,Silver Mine Subs,32.2313560123,-110.9577776781,3.0,36,0
-ATiAtTikuGuqvaW2O6tNA,Marathon,39.9504833638,-75.1673305865,3.5,593,1
W2mcChlYqeVirWSWSLgoDA,Happy Wok,39.802295,-75.170298,2.5,10,1
kKPJLiHIr9Gd9sYs3GhxDQ,Brick & Mortar,27.7713489,-82.6410526,4.5,421,1
TttFjRQ-8Iz8by4hsD7iOQ,Angelina's,39.940221217,-75.1557966694,4.5,49,1
cBp1fn2LXpSHe4VbTXLYEw,Bab Café - Reno,39.5281099,-119.8169346,4.5,470,1
wzE61ThXOdrSegvwSOzf5w,Biscuit Love: Hillsboro Village,36.1367494339,-86.7997314667,4.0,578,1
VRGYwKE_Z77frm5NwLvJhw,Burger Republic,36.1524355,-86.7835814,4.0,721,1
68ThEdiK0eWCEgGEmV9Tng,Southgate,39.9455687,-75.1717901,4.0,323,1
_ReMedGR8eDM5AgdRK0jCw,Shorty's Breakfast & Gourmet Deli,27.9519833,-82.829696,4.5,68,1
SlLfWzeYOrVBxCd-0QILZQ,The Boiling House,39.8996609,-74.9532997,4.0,238,1
eS4billU3Yd9hoVUFfZFbA,Skyline Chili,28.0338251,-82.7391913,4.0,81,0
oLc7k78_YcDMnMCdbC-h1A,Lucy's Retired Surfers Bar & Restaurant,29.9464139,-90.0675418,3.5,514,1
Jx2AoB_IQOUrZ3s6fdAUSA,Sips Specialty Coffee House,28.0632446,-82.5503918,4.5,219,1
gZqFuqTjtN4Bfh-_fO315w,Tandoor & Tikka,39.780457,-86.172077,4.0,157,1
tQYOAfl33tmP4oWpfyRr6g,El Sabor Poblano,39.9358187,-75.1686973,3.5,56,0
b2IDM2SC0HkcflLl_nSTrA,Danny Boy Beer Works,39.971541,-86.197146,3.5,187,1
y44MbCvvtmg1FpkNGSWisw,Tony's Luke,39.8773236045,-75.2436721818,2.5,172,1
q72up2Av5yNNVPk7vdKg9w,The Egg & I,39.95551,-86.1176451,3.0,133,0
k6XrnjX2TBM_nDzD_XA9NQ,Terrace Lounge,39.4972231,-119.8010219,3.5,84,1
LktIfbmd3k0kDiWibGw7DQ,Stacked Pickle - 96th Street,39.9254897722,-86.0890453372,3.0,67,0
EbTJAD4R68mbRLapvF0skA,The Live Juke Joint Dueling Piano Bar,38.6124086,-90.3196308,3.5,17,0
MMRRS6YhVRx_iN5-JhMRYg,Han Dynasty,39.9567105161,-75.1971027811,4.0,783,1
lwdkX7KcibM4mDqpDfK7JA,Kalamatas - Green Hills,36.108847,-86.8114334,3.5,153,1
fa6InRseC0Uxnt5d90E3LQ,Trophy Fish,27.7708598,-82.6614776,4.0,167,1
MVmJuns9ZD9QLGltc0Am8g,Triple R's Smokehouse,38.4935850144,-89.8207885399,4.5,8,0
yN6jZyG1G1FG_HCZQlJZ1g,City Barbeque,39.979376,-86.001692,4.0,188,1
Q1HHAb4FzrzfnnrRyA8fgg,Cheeseburger in Paradise,39.664583,-86.089236,3.0,103,0
QWqKTWQ2OiDgo3dzNkpung,Jong Ka Jib,40.0520643,-75.1273939,4.5,351,1
AY1SyySRyTnBwBdf7qfGxQ,Citi Market place,39.9489105,-75.1630155,4.5,86,0
DsKzHnkLKnxZTVsFpts4oA,Red Owl Tavern,39.9492805,-75.1489288,3.5,618,1
VVvUBlc_WIEb8obKGq39dA,Four Green Fields,27.9803985924,-82.5377866183,4.5,39,1
o3RGMdSY37_PX1k1vZsXpA,Cafe Ponte,27.8948541,-82.7137001,4.5,541,0
ZnAr0AxYpEYK1ZHNc4fk7g,Tako Japanese Restaurant,40.111359,-74.936016,4.0,181,1
WmzwJXyBdqsZCZ254XDrtQ,Sharky's Beach Bar,27.9708364,-82.8295894558,3.5,63,0
WW8WN8J89M3U4z1xP4MhnA,Bob Evans,39.9265503193,-86.0354844434,2.5,44,0
aJvxWyQIG5OLfBw3qAe8xA,Starbucks,36.085948,-86.6474926,3.0,65,1
YUUMXtU66B4rxwJohSQm7A,Tucson Cookie,32.2281415,-110.9348592,4.0,11,0
mUIBtlWNPD7sz3rGGWQ1RA,Kanella,39.9463322,-75.1579478,4.5,579,0
VbItL6RDULtnw4YvB6EhVg,Jon's Bar & Grille,39.9412993,-75.1477446,3.0,178,0
yDiWYpuzRxcTgSi_O4JZpQ,Masala Kitchen,39.666674,-75.6003719,4.5,79,1
LGqiubTmpJ-A1L5n7dmc6g,Domino's Pizza,29.8753202,-90.045817,1.5,14,0
SwWfW3vBn5QkDE7T3urGAg,Persis Biryani Indian Grill,36.162142,-86.516006,4.5,246,1
_v3DcLatG70adfYzWTd-CQ,Pacific Health Foods,34.398436,-119.5187939,4.5,97,1
SuQgcpL-aZeuyRjBdA0pHw,Samurai Japanese Restaurant,40.0255409855,-75.3262319244,3.5,69,0
8-j10_I745ITrczbkfD-Pw,Desi Village Indian Cuisine,40.0841953351,-75.3873682022,3.0,148,0
i-tDq8zC7ZmSqSbg_7oddA,LA Smokehouse,29.962067,-90.117703,4.0,79,0
JcP1z6eZBgTIcxWlyxSw0g,Iris,29.9536503,-90.0650564,4.0,67,0
o2ETM4XZXENkzuAaYT2GIg,Sen Thai Asian Bistro,38.631047559,-90.1941606669,4.0,181,1
6kPHr6gZaU9732ptn9gJrA,La Guerrerita Mexican Food,34.4359054,-119.8230676,4.0,128,1
NK9wtI7bMlO3WBjYzhpFAQ,Fleur de Lilly Rivertown Cafe Restaurant & Bar,29.9741624,-90.2466584,4.0,17,0
JhrvtLpCEQcYrZLbb6CZGw,Frist Art Museum Cafe,36.157609,-86.7838239,4.0,16,0
o1bd3WLl4McflqjDTJTdHQ,Phat Bites,36.1690161014,-86.6655348482,3.5,364,1
UCMSWPqzXjd7QHq7v8PJjQ,Prep & Pastry,32.25552801,-110.94349236,4.5,2126,1
kJpoduG3wdA35WzOF_T1Aw,Mexico Lindo,27.838651,-82.7173312,4.5,54,1
oEbpO3vmcrGDW2mtb_s8cQ,St. Louis Union Station Marriott,38.6295275995,-90.2084375636,3.5,41,0
RhuYqAT45uIR2NNdDsolXQ,St Mary's Mexican Food,32.2299895,-110.9875711,4.0,207,1
r2cjbHG_WGWUkaPCbLpo-A,Philly Fusion & Grill Chicken Bowl,39.962004,-75.1722752,4.0,20,0
SoJwDKedR7SJh7-G69C38A,Hong Kong Sunny,40.3639078093,-74.9660219123,3.0,18,0
1_nd9Hcswx4K4FmZZQPMVw,Rosemary's Grill,40.17642,-74.9361,3.5,19,0
l4aS1QVy_bGnwUXSJzpbsw,Big Apple Pizza & Subs,39.556883,-119.732753,4.0,15,0
qLrTiIPDlnNX6FYTs29rmg,Buddy's Grill,32.250943,-110.890264,3.5,14,0
HCqmx4ENAZ76SAjoalj-MQ,Puckett's Grocery & Restaurant,35.9237549,-86.8700112,4.0,850,1
ziFtaIQdzQfFL79iLTq_zQ,Zac's Hamburgers,39.89378,-75.3197179,4.0,48,1
kGMDSF0YpNwJ-c2BN5yBpw,Dantes Ristorante Pizzeria,40.143615,-75.324635,4.0,23,0
eJYvM2Zy5BloOYGldWmAVw,Chateau Cafe,30.0202243,-90.1114674,3.0,66,1
OlOVRlcEstxKK_6hMjy63A,Hollywood Grill,39.786959,-75.545275,3.5,190,1
Uc6PdjT_MO5bRPQsUUEy5Q,Anthony's Coal Fired Pizza,27.9271341,-82.5063009,4.0,229,1
L3V21nAe-CicW2bvtNWa0g,Mixx Japanese Cuisine and Noodle Bar,39.953333,-75.156571,3.0,118,0
R77LwVI3wPAFmDLrXt3zZA,Molldeli's Delicatessen,38.519185,-90.3623446,4.5,152,0
IbndcMURguByburM72o3SA,State Street Kitchen,40.2285432,-74.9370146,4.5,124,1
qdL-EbgoA7Gq_2u4e4YvLw,Harry's Blue Bell Taproom,40.1699648,-75.2871493,4.5,131,1
GlYN-RJyL_YwxIqsSDo1ag,Mother Hubbard's Café,32.2510448,-110.9728955,3.5,250,0
DRnvSL_I8MLuTLhl6O4JBQ,Gennaro's Tomato PIE,39.9299503,-75.162894,3.5,49,0
gwNlSSV0hGgNgTqPprj4FQ,Fresh Cafe and Catering,32.2859864,-110.935407,4.0,43,0
vh6YOciEM3M4zi2FGp-b5Q,Siam STL,38.6280115,-90.251113,3.0,41,0
dpwkz52tHB2MCPv53I2aRA,Jazmine,39.4508340004,-119.7585680438,3.5,455,1
ISBBeqLeERHiKfqa7PZkuA,B's Diner,53.51766,-113.490226,3.5,16,0
Ym8E4Lgi3IfH53YuG5WxIg,Golden Corral Buffet & Grill,38.7782803,-90.5289209,2.0,34,0
0cB1kDuZCvSwpJrNdtQP8Q,Giordano's,39.7681769,-86.1596387,3.5,284,1
c7OfNRMIqAhtNOMEat3Rbg,Fellini Cafe,39.986747,-75.397289,4.0,156,1
vOgQnvKbE4nMopFTjoL8Gg,Watermark Restaurant,36.1522693592,-86.7850399017,4.0,296,0
wP9Cx-jxLflhv6c1mGIjYA,Santana's Bakery & Cafe,39.9602939,-75.0862346,5.0,7,1
Gw7UW0E2BguzL9suQnwDeg,SPOT Gourmet Burgers,39.9747101233,-75.1825701445,4.5,282,1
SbdL-8NSmTWgSwdGZBa7WQ,Fresco Pizzeria,32.2364624,-110.9276826,4.0,240,1
j5U5O3scMvPe67jzJcWFug,Zaxby's Chicken Fingers & Buffalo Wings,28.0146920537,-82.6140054742,3.0,37,1
vVvtWcFResspvcMMNRbYWA,Golden Corral Buffet & Grill,28.287119,-82.712339,3.0,50,0
c8rjE6NcfeyzLB_aU1GdMA,Sláinte Pub & Grill,39.954815805,-75.1836068183,3.5,139,0
CjkxTRergWcYWb4SVW3gxw,Smokin' Out,28.20766,-82.740475,4.5,88,0
C_EtrXTygRX5RTUOKtO6Dg,Copabanana,39.9515586,-75.2032578,3.0,334,1
vN6v8m4DO45Z4pp8yxxF_w,Surrey's Café & Juice Bar,29.935799,-90.071906,4.5,2084,1
euu_JA0YFf63f75uaVSyng,Americano - Freestyle Tapas Bar,36.153487,-86.795904,4.5,421,0
7EhTT4iEuA7JaaWA-eI3Qw,Seasons Cafe & Bakery,27.838462,-82.682464,4.0,292,0
zSqTndm5Alq9dW1PyzbdTA,Grand Isle,29.9475671,-90.0651152,4.0,588,1
4u4njx79dMrXNhbRFHjG8A,HK NOLA,29.9450835,-90.1261013,3.5,22,0
NcO-pWiZmNM5zBg8H9zB6Q,La Tavola Ristorante Italiano,35.9811081,-86.5193323,4.0,191,1
GUMVStVaJfWmCIpQA4TtHg,Crazy Sushi,39.952045,-75.17167,4.0,550,1
GOSVLhjUT6TnrPhkkmDOpw,Vineyards Cafe,39.969939,-75.163026,4.5,192,1
R07rb3FN2QoRIbB6r6HDxQ,Tastee Restaurant,30.0115110652,-90.2661487145,4.5,141,1
WecgAHgzAPLOmM-6-Iga2A,Cafe Roma,29.9320758,-90.0745904,3.0,110,0
V9XlikTxq0My4gE8LULsjw,Claim Jumper Steakhouse & Bar,32.22188,-110.91307,2.5,325,0
ompDR5sUDpoI6gnTldmneQ,The Praline Connection,29.9634035,-90.0579092,3.5,770,0
8eDkw7CE0NKqMknPIu26fw,Two Chicks Cafe,29.941958,-90.0652612,4.5,888,1
_RwlMTw9uFeOkfX9Ctf1HA,Dinardo's Famous Crabs,39.9540048,-75.1454969,2.5,256,0
UhjfJpaAzgSYrTZ_dMMF1Q,Philly Diner,39.8674080649,-75.3082371545,2.5,129,1
vF32KjPs8BgltSa484P1Yg,Euro Grill,36.0904461,-86.6953542,4.0,26,0
SlGNxQI23jc9iTZNTs_I3g,The Drafting Room Tap Room & Grill,40.051827,-75.6370738,3.5,104,0
dJfkfBbJz7wi0RgW-ph_Eg,Sake House,28.055212,-82.399374,3.0,140,0
jULIPydhMj18KOI5OHTwfA,Buena Onda,39.9609147337,-75.1708267829,4.0,552,1
wxNrsZt7towVK4LgjjEo1g,Osteria,39.944674109,-74.9624066914,3.5,99,0
HZtkTPfSshfRjpQR7x1Raw,Subway,39.5834734,-119.7392754,2.5,9,0
WQ832PDnsDshhbQFm83ISg,Villagio Cinemas,28.055282,-82.506247,3.0,285,1
SDF1usj2mnUNqbIy4JBQTQ,Lucky Perk Coffee,43.6186942,-116.4124079,4.0,24,1
BJphaOPeTtqUFF5pauQEhw,Los Caballos Locos,39.9179108,-75.1491694,4.5,31,0
DTIKGgzoKGLCNw2dNKfHZg,Lanna Culinary School and Events Center,39.524703,-119.823565,4.5,55,0
VeqkfRUzZAKlQer3npXPdQ,New India's Kitchen,38.5920571,-90.5035651,4.0,130,0
Es39sSDXiReBthHLBSD_Xw,Phillips Seafood,39.956841,-75.167597,3.0,23,0
WIv5kTb_P3jnngPkMeRRNw,Jay's Favorite Sushi Bar,39.950303,-75.166856,3.5,97,0
P50W1jWWLTFjuEUdkGZJdA,Oasis on the Boulevard,27.771566,-82.395026,1.0,8,0
6kAXOzE7fqaBZINQV_-_mg,Kien Giang,36.148333,-86.862353,3.5,326,1
qq6vsh6ZEshfv4mTdrjA0g,Magasin Kitchen,29.9483139796,-90.0752910749,4.0,141,1
t0XZeA0MP0P66QyLQn_NUw,Yellow Submarine,39.5500960255,-119.7542114663,4.0,231,0
7R_LxvRPu3qMc8xMhP0POw,Mo's a Place For Steaks,39.7654422471,-86.1573568352,4.5,42,0
bdth7r1brx9yRU7sYwF9jQ,Nippon Tei,38.596068,-90.493565,4.0,254,1
HcEOK1WiOpHvhZtp7PkRmg,Salsa,36.1539331,-86.7810165,3.5,186,0
ZhCnKe7U1TsHWnAlXl8Isw,Old Standard Fried Chicken,38.620026,-90.256022,3.0,195,0
quCIR7UcrMmpaKXYwet8pw,Convivio Italian Artisan Cuisine,39.955078,-86.163923,4.5,339,1
TghRoAMx43V-9l7mH-SENg,Crabby Bills Clearwater Beach,27.9770768,-82.8277495,3.5,408,0
5v9Voa4a5MON7mAQO3gV3A,Montesano Bros Trattoria & Catering,40.078086,-75.6907377,4.5,97,1
NV6zZPb5OGVpyX4JrSzUPg,The Block,38.63812,-90.246528,4.0,155,0
neWdmzHgbpqSx62jynDd7A,Broussard's,29.9566431,-90.0680566,3.5,63,0
fdjzXyPw1Zt2avRokULJOw,Doan's Restaurant,53.5416222,-113.5051216,3.5,47,0
SKW1zA4nY_SPKkQPmXNHoA,Toppers Pizza,39.9708157,-86.1557213,3.5,70,0
72Y65Cg8MO1t9cWCHpwEQQ,Fresco Italian Sandwich Shoppe,39.7721837,-86.1520148,4.5,41,0
1ys1jf1-4EuiHONfpHWdwg,Nighthawk Diner,29.9658844,-90.0512251,3.0,6,0
D3DMIr-I0AKzlIKdErxHGg,Nathalie's,38.6414,-90.25241,3.0,67,0
F2T2Ef5kcZuyTyUcJyh0rQ,Timeout Sports Pub & Restaurant,43.5870789,-116.278549,2.5,6,0
oThWInL6gUCt2d98fSIAfA,Chatham Tap Fishers,39.9565163876,-86.0230119251,3.5,262,1
ffvS2BlFwQra5FTPNk5N2g,Arber Cafè,38.5690797,-90.2866399,4.5,18,1
U30ggGzFpXvc2NZYwOW3qg,Mood Cafe,39.9486639126,-75.2158315415,4.5,458,1
0qu0fNTOsSmuREYVIMPuIQ,Cold Spring Tavern,34.5216257926,-119.8405629067,4.5,1018,1
iDtIMWJVIGYspg5JvJKaOw,Mad Mex - Wynnewood,40.0018451035,-75.2716344537,2.5,248,0
2er_V-oAd7IbQ5YTY56r7A,Bareburger - Midtown Village,39.9489334,-75.1595088,4.0,622,0
At6iwGTy6bDxc7PUEOTvQw,Jake's Wayback Burgers,40.170056,-75.127437,3.0,30,0
x483GUYbdSgjaX9Xi3nOUA,Mirna's,40.0964196,-75.1260276,3.5,26,0
l3pO6YTjFUgVoXgm3gfUag,Ichiban Buffet,39.9231457,-75.0430536,2.5,48,0
kGNzqiYKDns-IU80uHF4sw,QDOBA Mexican Eats,38.5027289,-90.4449844,2.5,30,1
Z5po0aTuzKKblek5y6Sp8Q,500 Degrees,39.9503631,-75.1662246,3.5,443,0
BIW1SKq5ItkA9gP6-FhSkA,Sylvia's Queen of Soul Food,27.763513,-82.662551,3.5,132,0
Vnob_w_Aohf7ZDqxcJ9z2A,Mint Modern Vietnamese Bistro & Bar,29.9349228653,-90.1095502387,4.0,403,1
2bl6G1zgXUHbMGwEocqMSg,Daves Dogs - Cart,34.4196204,-119.6767648,5.0,156,0
zwfN21b6gN2XGjNG6MYNzQ,Wolfgang Puck Express,39.7166926914,-86.2978263572,2.0,70,0
NMtUD873aWrNjljt3VOcFA,Juniper Commons,39.9440648,-75.1653273,3.5,63,0
CinrOH8rMB2hEvPY_iFOHA,Casselli's Ristorante,40.1414879,-74.9846616,3.5,39,0
-e9MepGs8piOYdwuP5x7tw,Lilly's Music & Social House,38.599064,-90.223947,4.5,15,0
p7C2l6MyJLq9lKMmUhjqMg,Papa John's Pizza,28.0615217,-82.707124,3.0,18,1
V8H6z5ulGJEkaFUyRfmLKw,Sculley's Waterfront Restaurant,27.78556,-82.7812484,2.5,355,1
9_m_iA3VAqGBJEW5XLc-5w,The Cuban Sandwich Shop,39.906797,-86.2182121,4.5,506,1
DTuAFwqf2lknagHDT4pUMA,Romano's Pizza,40.1789324,-75.1088765,4.0,5,0
HCbJPXWXvwN-C7XfmVy3gA,Granite City Food & Brewery,39.7664200969,-86.1592453161,3.5,258,0
IwqFmo-RJs15WvA8PVHFnA,Madre - Boutique Taqueria,43.6079160867,-116.2129873037,4.5,141,1
rVfe1LHo55A2fworkm_jVw,Capofitto,39.9485775068,-75.1450225711,4.5,205,0
wUnLSg_GKfEIQ5CQQ770_g,Vetri Cucina,39.9466441,-75.1631867,4.5,489,1
kZtl_NJjUnlIQgzFrBhXyQ,Ichiban,34.4017849,-119.720842,3.5,227,1
kqAa2CtPGA-QsZhhbzpzUQ,Blu Fig,36.0100871,-86.7013586,4.0,118,0
G6kRQylkjNNE-yUXM2muBg,Brandon Bagels,27.9382531,-82.2973831,4.5,119,1
6N9T23_iXkcOCh6boAXpIg,Nox Kitchen + Cocktails,32.3220708,-110.9287346,3.5,93,0
VCjvaX_78oEKG3I9oTJEag,Fair Grinds Coffee House,29.9805971,-90.0841403,4.0,161,1
qEBL7U0kW4lkptcd_4wWbg,New Day Gluten Free,38.6379613,-90.3386331,4.5,99,0
sdFJSq-EgmtplIwUamRwTQ,Bayou Burger & Sports Company,29.9572555,-90.0670177,3.5,446,0
j99PtxlKTW_u5alE4jiqHQ,Ralphs Italian Restaurant,39.9400584,-75.1578655,3.5,653,1
zVoxVPHEt11_0GzqNuT2ZQ,Home Wine Kitchen,38.612765,-90.318053,4.0,186,0
aZNiVR6oAMQX5__yGPvYsg,Susanna Foo Chinese Cuisine,39.9493255,-75.1667043,3.5,26,0
-K0zTgGyxo-AeSkcV0IVaA,Spiro's Restaurant,38.6781756,-90.499149,4.5,158,1
LT4A5jVMURvH_DKdr7A91w,Big Q BBQ,40.1659789441,-74.8753250075,2.5,65,0
7lwe7n-Yc-V9E_HfLAeylg,Pub & Kitchen,39.9456566,-75.1747733,3.5,615,1
OHzX-ZD9qyoeoxR8Z0dlIA,Khyber Pass Pub,39.9486423,-75.1441173,4.0,845,1
5FDt7sy-70y4_37Dh2qcbw,El Arado Mexican Grill,39.7523127,-86.140383,3.0,162,1
2FnoLyEO0nq7g2Wz8x7Z5A,honeygrow,40.0036661668,-75.2218453609,3.5,344,1
7UxNDF6ZpabC3O0-Qbg3Xw,Yama Japanese Restaurant,39.981839,-74.7987789,3.0,52,0
Jn_F3hYqknRTepCg6om04Q,Chile Burrito,36.0265540855,-86.7898475993,4.0,92,1
m1EGAIfFEN9nG2_bJqnAcQ,Sushi Minato,39.4770062,-119.7825078,4.0,231,0
Y0JF1UN7pfWJ-GuzuVXM0g,New York Pizza,29.921,-90.102121,3.0,178,1
7UtzYHLViVa5WJW992f3fg,Sapore Italian Cafe,38.595555,-90.521464,3.5,8,0
skN2XhKXlcjf53uIwzAedw,Burger Up - Franklin,35.9459704793,-86.8279486659,3.5,329,1
WLrFLRE9uvqj9ahrEjevYw,Barone's Tuscan Grill,39.9714356,-74.9177259,3.5,118,1
gyUBYwpUO_u0nqZdre4l1g,Shanghai Express,39.916113059,-74.9215189617,4.0,74,1
EIlFs8kybcG-l60GJjNUIA,Domino's Pizza,28.0420037,-82.6746125,2.5,20,1
5cz1XbgalpQ89gsNQwneVQ,Portofino's Italian Kitchen,27.9955961525,-82.5828616138,4.0,59,0
w5DsFKVqKcKXm509vjinqw,Jerry Bobs,32.3070289,-111.011438,2.5,37,1
ZXt0zo8liURaAEKD47zDRQ,Frabotta's Beach Kitchen,27.801848,-82.8018413,4.0,188,1
-bGw8ARHQucKWEHEkxpGFw,The Daily Bread Bakery & Cafe,38.6010227,-90.4283894,4.0,114,1
-Fka99c-tJ-epWYNIobqyQ,Pizza Mizza,34.4208305,-119.6981901,3.5,169,0
voAosWO5yGhvppHRKm-7mQ,Magnolia Grill of New Orleans,29.9602149,-90.05942,3.5,117,0
_owHO6DTYU-XVP8jAcgZFw,Sam's Sports Bar and Grill,36.1363499,-86.8014482,3.5,123,0
uI15YInpDsGBUZcNfm_TfQ,Borrello's Pizza & Pastaria,34.4063061,-119.5476647,4.0,169,0
i7syG2Gyr_qVPR1GwehzuA,Fleming's Prime Steakhouse & Wine Bar - Indianapolis,39.9098017418,-86.1061134961,4.0,165,0
9dm_v79s9-pefMahqp1SkA,Loco Mexican Restaurant & Cantina,39.7974826702,-86.1530939541,4.0,178,1
xJ3NSwE0xhdtA-tB_y_rNQ,Jack Dempsey's Restaurant & Bar,29.961515,-90.0327443,4.0,168,1
-hVMfjPPEsSnga_gnYJx2w,Flowing Tide Pub 3,39.4875800401,-119.7593061178,4.0,102,1
47oPgHNdVR5x_oFNbauNug,Chuck E Cheese,53.5980544,-113.5680557,3.5,7,0
Nd_3fSvYDCjM8YJdBx4Y9w,Melt Down Grilled Cheese,40.045122,-75.4037589,4.0,89,0
bb76HnMUTA-qg2UbFa9dYA,Parkallen Restaurant,53.5069356,-113.5123957,3.5,53,0
tpSeNezanZDvsXWR7Hhi1w,Taco Bell,39.939491,-86.236001,1.0,26,0
bJAY2baMKSTlWRc-QZGopQ,Lilly's Cafe America,40.3110241,-75.1308993,3.5,59,1
3wogQmKw729tKKWaVbZvbg,World Famous N'awlins Cafe & Spice Emporium,29.960059,-90.059223,2.5,295,1
bRRlWJeuPtmI3UuGhh43Wg,Yolk Iron Works,39.912061,-86.116656,4.0,291,1
98mYebjHN_VXZapVm8Nmqg,SWEGS Kitchen - Mid-City,29.9760651,-90.0996259,4.0,67,0
hoYHhfn4w0mVjI60eHDHzA,Poke Bowl,39.965637,-75.140681,4.0,194,0
VeFfrEZ4iWaecrQg6Eq4cg,Cal Taco,34.4305419,-119.882367,4.0,189,1
GV-e7Op4aU98xkjjoKlRhA,Modesto Tapas Bar & Restaurant,38.6184272,-90.2741883,4.0,256,0
OUuUc_qERdvTrnpj1vSLaw,Taco Del Mar,29.9835239,-90.1052542,3.5,16,0
pPFv6CTFK5i8FNj8f3_pVg,Sloppy Hoggs Roed Hus,53.5700271519,-113.490071297,3.5,115,0
F0AAzMdhv2RyjwHVned5bQ,Hendel's,38.7952860404,-90.3255335,4.5,324,1
kSQNBSWTLlo-SwR6IcpvHA,El Sol De Tala,39.7682918,-86.1200611,3.5,81,0
0zH0l4Jbf-oove3cLvrFOg,Vecchia Osteria,40.2280271,-74.9401945,4.0,359,1
IL4q5kYnSLSuhjlyxKuNMw,Beef 'O' Brady's,27.8801757,-82.8293008,3.0,11,0
JQz0_R70G3bjQ5dRqrhxKQ,Wildflower Cafe,27.9438404,-82.7994923,4.5,519,1
Ph6-SNyEK_CIOzARiJhG6A,Momma Jammz,27.8196191,-82.8243873,4.5,62,0
vCHNWdW-ys-nWUx3Cpvk8Q,Swiss Haus Cafe & Pastry Bar,39.9507452,-75.1701679,4.0,261,0
UUOOjXAyk7dBpwTtKCnwyg,Casita Taqueria,27.796819,-82.638827,4.5,103,0
1Pxg1AMf0rEn9QF__ZYoWw,Samurai Sushi,36.1510902665,-86.8037759995,4.0,367,1
1bJxvwuMTyXmQGu90WLPhA,Firebirds Wood Fired Grill,38.766872,-90.493852,3.5,417,1
Up0a_4ZYoU5tTN6HXq59Lw,Jonny's Sports Bar,36.0444056,-86.7140183,3.5,47,0
dERS4qwl9v-Gwft-Ug8APA,West Ave Grille Jenkintown Restaurant and Food Truck ,40.0957738,-75.1265509,4.0,277,1
kgMEBZG6rjkGeFzPaIM4MQ,McDonald's,39.9394402,-75.1668049,2.0,55,0
ruFtZKwlJASx5BTk1dh5AQ,Wendy's,39.538054699999996,-119.734624,2.5,35,1
sr-5EY6bmp4jINhea06MjA,The Cake Bake Shop by Gwendolyn Rogers-Broad Ripple Village,39.8739995,-86.1444306,4.0,996,1
tQ6VNQ9ezkxRE4bvu9WShQ,CBQ Cowboy Bar & 'Que,39.532118158,-119.7212948873,3.0,133,0
qDkbudGRfmJvf7trQZea4g,Ruth's Chris Steak House,39.9472570078,-75.164857377,3.0,110,0
8gV3YUl8uqHnA-wZ3UZ5Dg,Smashburger,40.0451177133,-75.5224183808,2.5,77,0
geUiM_VTRmUz6dViO7E-jg,Brixx Wood Fired Pizza,39.9570402367,-86.0173780878,4.0,193,0
1lXdhiMNyUxtBlEAeRYCvQ,Grabbagreen - Franklin,35.9516098,-86.807833,4.0,73,0
P8QLcGZZOPgl9w_3ARBKiQ,Hai Street Kitchen & Co,39.954687,-75.202181,3.5,100,0
kQANkgj6vHc1xCmxfNBNjA,Enzo's Pizzeria & Pasta from New York,28.0699285,-82.6300709,4.0,38,0
NeY1bH6IKJxnn4YAixibsQ,Cosi,39.9536708974,-75.1949572908,2.5,115,0
eS5KCIrpEB1Bp-uU1JJYyw,O'Charley's Restaurant & Bar,36.317476,-86.600643,2.5,31,0
JOvNunKJlWhwJRwLmUR9ZA,Tryst Gastro Lounge,27.7745220251,-82.6327141048,3.5,295,1
USekrAG0-4tJUs9V2gBBOQ,The Honu,28.0136119,-82.7852494,4.0,234,1
tYCok-NtWvg8_k7woeB83w,Grand Lux Cafe,39.940242695,-75.0248415088,3.5,422,0
5TVWytR2oNbSKYgfxypuBw,La Patisserie Chouquette,38.6197152,-90.2556467,4.0,229,1
ONKvCIc4eIXG3nutUAFe3w,Lucky Girl Cafe,32.2213798394,-110.9265219153,4.5,11,0
L-YdO_NODKXXT3bkS0nUpg,RumFish Grill,27.732229,-82.746455,3.5,664,1
L7i_5DydYEKwPLfcDBRYDA,Chipotle Mexican Grill,39.8531508501,-74.98253972,2.5,44,1
pk7E-3G7Ij39h9HifNz0TA,Jimmy John's,39.8535158,-85.9926098,2.5,15,1
1_hDCN3iioFR3XnUr32ZtA,Dooners,27.7718011011,-82.6369077739,3.5,109,0
f82dhKNiUXsDVPMLqKYiIQ,Sher-e-Punjab,32.2509598946,-110.9591583204,4.0,446,1
ew_Hhp12Silh3qjoPaW9IA,Thai Legacy Restaurant,27.9387182,-82.2860935,4.5,203,1
v5kwdvmg-J8g-ll0nkc3Sw,The Libertine Liquor Bar,39.7672488945,-86.1567753553,4.0,208,0
lGmuIrA9rHZ87_QbPXSIfQ,Leo Tucci's Pizza,39.878784,-75.004428,4.0,18,1
pafrjSu3h0v0N8GR3ghNtQ,Yats,39.8506443,-86.1455439,4.5,599,1
lRbHFOIFuusN2WOR_ypQ_A,Ants Pants Café,39.9451562,-75.179105,4.0,531,1
SKgD0jRWVKk3NqOtSs3VFA,Jerry Bob's On Broadway,32.2212055,-110.8852364,3.5,55,0
yqRF449dYddbt1bDg50J_Q,Rickshaw Sushi,39.458414,-119.775592,3.5,126,0
ixPTo6Hum7nNZ7A4VPhTXg,Brick House Tavern + Tap,27.9530594577,-82.5062855333,3.5,561,1
Iso6F11o-W4g6d7OUEaMng,Batture,29.943869,-90.133781,4.5,34,0
t6ALhUz4yCVzZeTNSwVjCA,Joe Bob's Chicken Palace,39.4564348,-119.7817824,3.5,62,0
14ZGwnDyydXdSBsLXpSUrA,Vientiane Café,39.9483087,-75.2178905,4.0,304,1
dNhuI4zka3WDhbfksalj5w,Willie's Chicken Shack,29.9582842,-90.0658012,3.5,83,1
-cE9GrThz6HHn2zdpoqY_w,Cracker Barrel Old Country Store,39.919463,-74.947455,3.5,204,1
LCpHFLUQhVMhfpNngtf_Ew,The Mustard Seed Restaurant,39.5185358887,-119.808879799,4.0,157,0
MbKhuO-4uYPc0NRZDRWoew,MexiCali,39.95499,-75.202699,3.5,69,0
q4aAaxdN4wmUZoC6sKEwsw,Carrollton Market,29.944307,-90.1343254,4.5,192,0
REns5fQe45Nk_D2UwQyr0w,Barra Restaurant,39.948818,-75.1456539,2.5,117,0
-wB5H63ERJ9S0oCp_ULR0Q,Dunedin Bagels & Deli,28.0163421,-82.7817959,3.0,82,1
U3aNQ5DsABPYyJQolsCbJg,Charro Steak & Del Rey,32.2210775,-110.9672554,4.0,589,1
lTlii3QHEVvsagPGsCtu9w,Han Dynasty,40.0343489805,-75.6338210589,3.5,301,1
gme2kAz1FvvwNcYHvnsqRg,Melodia Grill,40.314277,-75.311494,3.0,26,0
sdWuLh-auc0nC2Jy6_26AQ,The Black Sheep Pub & Restaurant,39.9484223,-75.1692901,3.5,339,1
W5-2F8kftKARrEPLhQaZ8A,Tuttini,34.42168,-119.70128,3.5,13,0
M2ZrrqseHE5xssUrOL0Gtg,The Three Coins Diner,28.0159759,-82.4514757,4.0,341,1
-V0vIgo6196MDn_x3ZaYmA,La Creperie Cafe,39.9506242,-75.1697297,3.5,146,0
txj3fsAeIvW7m6RtnzxMzQ,Union Station Pub & Grill,29.944825,-90.072989,4.0,9,0
3y61A28PQDZ4weeeTRfIlA,Burger Study,39.7643833,-86.1588649,4.0,441,0
WfPmZ9hp50ttugTVgfcPpA,Lulu's Pizza,43.6433577229,-116.2061858995,4.0,88,1
ymE6ka6y6J-z2y2rX8QH3Q,Capriotti's Sandwich Shop,36.152762,-86.7938496,3.5,50,0
E1gf1YIWOo1BgzMUwJtEZg,Top Tomato Bar & Pizza,39.9495688,-75.1589615,3.5,232,1
f4vbnGoGo3eWorVekctVGQ,Refuel Cafe,29.9441947,-90.1341609,4.5,328,0
m6KZGTxRb9_ZyDpB1G6O1Q,Freddy's Frozen Custard & Steakburgers,32.3232068,-111.0442513,3.5,112,1
UmjITdXHhEF46ho6IhaGQg,Dave & Buster's,29.9505161935,-90.0762040213,2.0,351,1
bSWL0YxfawjS03_g2kgujA,Allegro Pizza,39.9514453,-75.2029159,3.0,221,1
xwSWtJcQkzTF6HNm_IMgcg,Rusty's Pizza Parlor,34.4290427,-119.8693616,2.5,94,1
O6hY9yenifuRXrpc4TfgsQ,The Blue Duck,40.0571673033,-75.0304835714,4.0,495,0
jMZ56S8Y1t7cA1Ob-d-qeA,Three Muses,29.9632273,-90.0579277,4.0,1165,1
yUc9QKR91HYyKw2eNXsAUg,The Hungry H,40.2089093,-74.7741633,3.0,9,0
n1i7yciuoS2_6_g7ix9jlQ,Cannoli Queen,39.635812,-86.081567,4.5,62,0
-zsvmEbkd-K9K2DAAKqiEQ,Salty's Island Bar & Grille,27.969764,-82.829336,4.0,599,1
_EKvNMC2Mm67HzqNIzLgXg,Temaki Sushi,39.9180125079,-75.3881067852,3.5,135,1
d_tRshM-w6S4QxE4VVi8tQ,Jones,39.9493144,-75.1525254,3.5,1141,0
j9Kaj_6tSeXmVMYCgZithg,Noble Crust,28.188219,-82.347274,4.5,496,1
EZuIzN2oAdZt-dkbdwH0pw,Sockeye Brewing,43.6204010336,-116.3383125233,4.0,236,1
-d8B04ueyxADRutlcHYewQ,Hickory Kitchen,40.310409,-75.131274,4.0,157,0
1ig2AJg8A08_XA3pFAMiRQ,Stoney River Steakhouse and Grill,35.9628414887,-86.8103084232,4.0,252,1
1FURjeGJi_LBXcJQg8eskw,Padaro Beach Grill,34.4068326,-119.5485827,4.5,885,1
I2CxrvM0BGH1svfxqGGD2g,M.L.Rose Craft Beer & Burgers - Melrose,36.1226231735,-86.7761365195,3.5,472,1
U0ICWpbd1C0GD9SpIv3bSA,Outback Steakhouse,27.9384740106,-82.3183461208,3.5,165,1
TMT9U2da4ewGbk38X54KJA,Hackett's Causeway Cafe and Creamery,28.0489350817,-82.7799664065,4.5,102,0
UyD7FJamt_pw1V4d00lwjA,Naf Naf Grill,40.0836905029,-75.4040421546,4.0,197,0
FSTmzo0beEVMRMSArcp4fg,Lime Fresh Mexican Grill,27.9590140336,-82.5244080123,3.0,106,0
e9J0IWHyYGU-AcCqTQ7lSA,Kaisen Sushi,28.083075,-82.504375,4.0,69,0
5FuQbcHTF_I7PWJzhCMObw,Larry's Steaks,39.9958264,-75.233934,3.0,204,1
g4KzJc8y7BhW66ieNIwJEA,The Old Spaghetti Factory,36.1639095897,-86.7758031111,3.0,288,0
qyOUMa4Ol1lFnoZZ8lN_hA,Wendy's,40.11992,-74.707582,2.0,30,1
_cdy7hVc32mleVooP8x0Sw,The Roost,39.9560351,-86.0388752,3.5,142,1
w6z28easvQLND722s4pNvw,MK's Asian Persuasion,38.5746867,-90.2949503,4.0,23,0
d-37SrSuOew0uqwuOM_w7w,Thai Fusion,39.77881,-86.325932,4.0,58,0
7MaaaorooHRAqkQXcTqmrg,Nannie Francos Pizza,39.922527,-75.1644732,3.0,13,0
WYYdQDjx-DsCanlP0DpImQ,J Sushi,39.9470334,-75.1574339,4.5,72,0
ioxgFKdqjRowAj4dFM7VoA,TaTa Cuban Cafe,39.7684682,-86.1612366,3.5,54,0
NwJoFxmYRDxVGXgPtrjQ3w,Ploy Thai,27.936798,-82.3161294,4.0,171,1
ScXMp9vL7yjmG__hRK8azw,Corropolese Bakery & Deli,40.2378655,-75.5358704,4.5,89,1
pvnv9XvTXwYBpfScd29rrQ,Luna Bella,32.260726,-110.891514,3.0,38,0
uVJkqQ1U9MH7hBorrwGhBg,Wishbone,39.9539029,-75.204325,3.5,191,1
2rQFgavS-942RapZTBSBTw,Gullifty's Restaurant,40.025857,-75.325628,3.0,270,1
3SBlKwlmBiYVjW2SKz0gwg,Tomasito's,29.9452438,-90.0674745,3.5,7,0
Vv5Fxre786NpKFR_3OduKw,Chimi's Fresh-Mex,38.7024236,-90.3622203,4.5,125,1
_SjdrpSZdiXVSwaJR5T9jw,Squeal,29.9493823,-90.1326695,3.5,244,0
uE40984_YDgVvPeRpFcCaQ,The Fat Ham,39.9524388,-75.1873387,4.0,286,0
TqgsB91kKWjU4aKGR4GCgQ,Brother Paul's,40.1595512,-75.4085693,3.0,85,0
SNQ8sn7R9_e92GWKMCNSgg,O! Wing Plus,38.6906491,-90.3819558,4.5,142,1
yDHINEt7By47My7x4Mb8oA,The Gypsy Saloon,40.0689589,-75.3125708,4.0,201,1
ixsljpxu56VCTtayIELqUg,Tokyo Sushi,39.7374174,-75.5547254,3.5,17,1
TN3tMGLb6AbAnN6rFKmH1A,805 Kabob,34.4113354,-119.8577298,3.5,63,0
ZCURd9PiH4qdEjQfrIZzFg,Maggie's at State and A,34.4233666,-119.7047065,3.5,52,0
QdN72BWoyFypdGJhhI5r7g,Bar One,39.9398245705,-75.1574465632,4.0,65,0
c2HzB7UmtGnXSOR4bg3-JQ,Dragon Palace,38.5809642533,-89.9095141,2.5,9,0
iCKF72z3fqRTF1vxdBZINQ,Village Pub & Beer Garden,36.2043436,-86.7247994,4.0,260,1
O6RCCmz8-x4NhWJpI8KQug,Breakfast Culture Club,34.4177795287,-119.6998998701,4.0,108,0
71MulAHeKm5p2kIIGYEwpA,Italian Centre Shop,53.52638,-113.616426,4.5,41,1
xGUAa3xa8KsmbolC3XboQg,Xtreme Tacos,28.0254766,-82.457399,4.5,193,0
-i0nH5vp4oeoRpkVGfAQSA,Mayoor Indian Restaurant,28.240723,-82.187079,4.5,24,0
I0I2mkCOPTYVSLpc8A8VVw,Compère Lapin,29.9479047,-90.067498,4.5,804,1
2tg6sMQr9rrXVXmgrqBYmg,Cody's Original Roadhouse,27.874373,-82.640223,3.0,79,0
uKAbrDSJJzZliY1Yqu5KxQ,Scannicchio's,39.919346,-75.171033,4.0,187,1
K_WZrMHAjqZ5DThAw4ZKMQ,Taco Bell,39.823759,-86.234975,2.0,20,1
10JlCiyViBpUqRf58XlbZg,Pasta Vino,39.7858238493,-74.9221858929,3.0,57,1
QEOauqqX1vsGcJeN0FwyNw,Domino's Pizza,28.0520506,-82.5047792,2.5,11,1
uIZwBkvWicqyWraXvYOipw,Sbraga,39.9455017733,-75.1653677598,4.0,375,0
F-NLo63QqYWQX59M_nNZmg,That BBQ Place,53.5566879,-113.3173376,4.0,56,1
LdK6Tqr9-QK8eNezCUes9A,Mel's Kitchen,40.0359954,-75.2359063583,4.5,206,0
4dJedd_98CQJCKTEu1BkEQ,Los Primos,35.9171281349,-86.8316824044,4.5,50,1
fEFCglnS2V7MzqoxBoJVWA,Pei Wei,39.946225,-74.961052,3.5,75,0
b7YJrFZWZdI2C5-9nZvVdw,Saltwater Grill,29.944454,-90.133537,2.5,34,0
B-DiQpcSTJ7oMMnwzbAGTQ,Cucina Zapata,39.9542886,-75.1855377,4.5,248,1
-t9AIWJbQbpVKTV8Xoa5fw,Barbacoa,39.9516934,-75.2673544,3.5,13,0
7bcvLrwVEZN9iEeHxQrJPw,Tokyo Express,53.600574,-113.542302,4.0,10,1
LqaIFNWnwmy3PInuBDpAxg,Amigos Mexican Restaurant,43.632317,-116.2248715,4.0,96,0
kJputVxFc4-tvwTI6MVm3g,Fort Ben Pub,39.8563955229,-86.0096655786,4.0,47,1
DeVlppoc8dPBhOCPrm4wmg,Harry & Izzy's,39.7645705993,-86.1596685387,4.0,895,1
Dm8r2MmXeXHRaJyPUOQv-Q,Pizzaville,39.757854,-86.434312,4.5,42,1
IZmCSGeXLCB-Y2UvJrvr-A,Zea Rotisserie and Grill,29.9386502,-90.0761769,4.0,130,0
UvBSMmsmtT4RABoKy2ZJeQ,Lucky Belly,36.1365804,-86.8025863,3.5,73,0
encfXG_jrG1M6gX1IqrHrw,Ballyhoo Grill,28.07824,-82.569894,3.5,262,0
45siW2fI0Cuv5ZKCS23knA,Brew D Licious,27.771344,-82.643026,4.5,172,0
EP2jFD3aGoSBCWb7irY5-w,Queen of Sheba,28.048786,-82.3927705,4.0,361,1
wiO4EYRxuBhhDj924PlIIg,Angelito's Rotisserie & More,28.0688469,-82.4437504,4.5,60,0
RnqU698MbIjq_eZHEzYL6g,Top China,27.9297615054,-82.5065715719,3.0,43,1
_bofVL_0MxlZYWBa8XEJEg,swah-rey,27.771237,-82.6618737,4.5,239,0
tP8wd-9CrI_RkHK424oifQ,Panera Bread,32.2860688923,-110.9775895653,3.0,128,0
4F71OHF40sL1uYPuwKi32g,Charlie & Barney's,39.78110939,-86.1740708376,4.5,12,0
yeHLiKNp0hyR-ig4M6us-w,Livery - Indianapolis,39.7766812,-86.1456632,4.5,971,1
O5zuQH_YowDC-rsK8ZEXCA,Tin Drum Asia Cafe,28.0451503082,-82.6812278379,3.0,62,0
g04aAvgol7IW8buqSbT4xA,Cafe Fleur De Lis,29.9544944572,-90.0665915385,4.0,1865,1
JfFb1hw3FI0SY6fEnuI5YA,Teddy's Place,39.839409,-75.540196,4.0,23,0
DrRnV4gN7tkdrgBmG6Y7OA,El Salvadoreno Pupuseria Restaurant,39.8127092,-74.986529,3.5,29,1
nP4LqTcK1USiw5WnbOjW7A,Marrakesh Express,39.9567155,-75.2100343,4.5,48,0
L_sXNadtVHjxMw7Yhvkj9Q,Naoki Ramen,39.955454,-75.1549,4.0,92,0
lsgslT1Ho5FsFLSeCJW3fw,Hong Kong City,27.9724802,-82.74669,3.5,27,1
LnZvGYbqozanOSevcftnrw,HipCityVeg - University City,39.953549,-75.202991,4.0,314,1
wJmyu7W1K9A_gE8Ed4Bc9w,Trident Grill,32.236334,-110.941738,4.0,370,1
9Pvwx_IfQgQL4ykmlGV6yA,P.F. Chang's,40.1163224545,-75.2837920189,3.0,243,1
LDkD5R5N7CG9yCD0YSLMZA,Mae's Chinese Restaurant,32.1930837629,-110.7892191711,4.0,66,0
krTHKI0YOpASr4gz2CVWFw,Cosi,39.9481797,-75.1660502,2.5,56,0
RsTF2skxLcp6qo9FdnA5PA,Pizza Hut,40.21786,-74.9266344309,1.5,18,0
pVHbXwsqLxNzAx9rdwy2EA,Marmont Steakhouse & Bar,39.9497397,-75.1445806,3.5,316,1
g8ZqVCalVp-PsOqyS4dXGw,Nooddi Thai Chef,39.917523,-75.387799,3.5,185,1
jlgi2sLx5i6_t4mcODJW7A,Redemption,29.974171899999998,-90.0974353,3.0,63,0
37yDMpWI6HBO2iW8slv7_Q,Tutti Frutti Frozen Yogurt,38.6592269326,-90.338040106,4.0,52,0
IYzBKfT_JolGL-MA4STQYA,Three  Flags Tavern,38.6120205,-90.2693601,4.0,147,0
T57pARC36apZzr3CSCs4-w,Surf and Turf Kitchen,40.3475889,-75.0298548,3.5,25,0
H3JjbID9Zhukpqr9uupHAA,Jackson's Bar & Bistro - Nashville,36.1366299,-86.8004366,3.0,402,0
Y2NFeGtConx1qciSPKcRlA,Reginelli's Pizzeria - Closed,29.9233127,-90.0875812,3.5,171,0
lEOxwatxwXaCi8lPUTFKRQ,Indian Frybread-Manna From Heaven,32.2298445,-110.9894239,4.5,84,0
DzpaiMQnB_sNhZPrgdvKHg,Sushiya Express,34.41195,-119.857433,3.5,163,1
OIES_WhdNux3PmvSuPM-8Q,Toki Sushi,28.0774196,-82.5059947,4.0,106,1
y1HgVnt4K5owmYXC5yXLGg,Flambo Caribbean Restaurant,39.9686973,-75.1606146,4.5,138,1
pNu5bd9aL3jcJClfdQ86MQ,Momo's Ouzaria Taverna,38.6603769097,-90.3371429443,3.5,243,0
cbsi6TU7ojJ_exZSD-zv9w,Dairy Queen,39.6652470161,-86.126124,2.5,11,1
fBCv5Euudl9VieR870gwNg,Absolutli Goosed,38.599328,-90.2426436,4.0,83,0
TfcpJBiFNnDaochnmp4M2Q,The Garden Brunch Cafe,36.1728626,-86.7937886,4.5,712,0
1PYqegX1SruVbkCsRF-4lA,Opry Backstage Grill,36.2177772,-86.6949403,3.5,195,1
Wk21f0DAM7uj3DaJ_rMI-Q,Brunchies - Lutz,28.1853891799,-82.4130005556,4.0,272,1
Fc_8eLlcq5yy4DzrEeqEaQ,Ken's Seafood Restaurant,39.9551567,-75.1562026,3.0,95,1
97RQWFsvn-DhpfR7cWUrMQ,Tonys Mexican Restaurant,29.9378901,-89.965902,3.5,6,0
lk9IwjZXqUMqqOhM774DtQ,Caviar & Bananas,36.1483712,-86.7988947,3.5,159,0
VZfc50XVwgdCecH4YbGNFg,EATS! American Grill,27.902583,-82.505631,4.0,323,0
B2wSy1zQCdZgDXOkhAKGDQ,Embassy Suites by Hilton Tampa Downtown Convention Center,27.9423153,-82.4547605,2.5,209,1
xDqifhzRrOOYMOgOtWvyWQ,Waffle House,36.1359726711,-86.7244343659,4.0,19,0
K5ffo0hkwhG33BDNQrJF6A,Slate Bleu Restaurant,40.3072739,-75.1299259,4.0,105,1
1h9NXhwX4C4pXuBg7Dq7mg,Serious Cookie Company,27.9815833,-82.8268068,3.5,54,0
cp3pRJJuQo0urJZm2inr_A,Veekoo,40.1966292847,-75.5329163118,4.0,160,1
Fok0BLJP0OMxbbl3l6QmZA,Sauce on the Side,38.6499759129,-90.3374733208,4.5,330,1
YB689VFiOlzUTBRPiauDFA,Terraza Cafe,34.4387119,-119.7286469,3.0,17,0
-ui0RWrHmm4DQPFMVh2_Yw,Sapporo Sushi,53.5551764,-113.4931959,2.5,32,0
HfOLOAYMKNUer3eXXTLHew,Vanos Pizza & Italian Restaurant,39.9985455,-75.5667973,4.0,17,1
pe01uqQsa6raj-4HWRjgGg,Independence Brew Pub,39.952616,-75.159445,4.5,5,0
dChRGpit9fM_kZK5pafNyA,The Love,39.9506555,-75.1708991,4.0,618,1
a1E2BPYnufFzb6YX2pplJg,Wahoo's Fish Tacos,34.416913,-119.6961686,3.5,62,0
L5LW_wN6Z0JV_vKe2jnsBw,Wendy's,32.3454644454,-111.0135447675,2.0,21,1
a7ZmzKZRhVjKaJBZ7zIGzg,The Dish Bistro,32.2354037,-110.9255968,4.0,69,0
_49FsmTfruZSTjxU4OwOsg,Taziki's Mediterranean Cafe - West End,36.1436547,-86.8135218,3.5,120,1
K8b2MQ5Az59-nzvqUfjJEQ,The Farm and Fisherman,39.944935,-75.1606759,4.0,234,0
vG9aD-fvsIimgo-l7u8-AA,P.F. Chang's,35.9467222474,-86.8257665634,2.5,181,1
TV81bpCQ6p6o4Hau5hk-zw,Hellas Restaurant,28.1553911,-82.761866723,4.5,1368,1
Derr7dcpu_BRwl8OwGQtyg,Pizza Wings Steaks,39.960644,-75.189224,3.0,41,0
r-kln94enJMMmCWmzbXO2g,Kermit's Bake Shoppe,39.9394185445,-75.1803047991,4.0,183,0
pjb3xGA9ccjl49B5ERH46w,Carmelita's Mexican Restaurant,27.8949805,-82.7442806,3.5,108,1
5JiFbBsbUdb-caBZWRyMSw,The C House,28.0020654897,-82.45917622,4.0,376,1
2Q1R2OhBbAQ581vK_r7NhA,Ooka Restaurant,40.1566693,-75.121837,4.0,394,1
VLryc6Q-JbhMdrg7L6rRww,Porta Via Italian Kitchen Cool springs,35.9440275,-86.8277986,3.5,77,0
z22hSRptt_DS0nWjsIka2A,Outback Steakhouse,40.1937724033,-75.5249086706,3.0,89,1
jl3oJf5M2dI3F4n4weCT-A,El Gallo Giro,43.6145757,-116.2019231,3.5,63,0
-WgD54ji0_MgHWgf9WBXrQ,Ali Baba,29.9583113,-90.0655086,4.0,80,0
F8yozE3NWnImNApHO347gQ,Marrakesh,39.9420436,-75.1495102,4.5,659,1
3VKE0_-KhU_qMYHxcyVcDg,Just To Serve You Too,40.029648,-75.1322934,3.0,68,0
-6OjnX3ZdDOhHxWR60wysg,BlackFinn American Grille,38.6369514,-90.3466696,3.0,75,0
sece3MulAu81rJORM3qXQQ,Berix Restaurant,38.5237387,-90.2997651,4.0,93,1
f32tFv4MI9L6w3H58TsVTA,Hooka House,39.7544674104,-86.1493147227,3.5,20,0
tCLAeZsjXFG9RumJ4Hn0Kw,Maru Global,39.9467949,-75.1577025,3.5,72,0
xkgbgwTlkhzwo4ya_eIW-g,Cafe Du Monde,30.0059172371,-90.1573632995,4.0,127,1
7tN8hIXdQlfc7Lf5OOyjeg,Gator's Dockside - Tampa,28.0548911,-82.3905826,3.5,158,0
1ol8rghO_5m0M5WFMv-C8Q,KFC,39.5357831889,-119.7373932944,2.0,32,1
jT8tEryYV9JznR2beI4Vtw,China Taste,28.0242182272,-82.7731468198,3.0,19,0
X8k7N03buo2bBbUUfcAltQ,Taco Bell,43.59716,-116.39233,1.5,38,1
iIn5BYcLSMv44Z6gdavuTg,K C's Korner Restaurant,27.7669836,-82.700167,4.0,7,0
P_x9fEz8efemqOIV46S0tg,Red Mesa Restaurant,27.8168717,-82.6389697,4.0,585,1
DSGHZnDLRbR9wk-u1trRUQ,16th Street Seafood,39.9307459,-75.1715522,4.0,7,1
fKDV_dlDhXd7P5kZi97Kng,The Spot,39.9483749,-75.1744886,3.0,80,0
POIfSWO_mQ5omTzIHbQf5Q,Cumin Cafe,40.3635637,-74.9512705,3.0,8,0
1Efad30BdOeqqjX2d6P4sw,Ohana Cafe,28.0690372,-82.775979,4.0,99,0
g10CUV0LY50kLHMn5wgS_g,Willie's Chicken Shack,29.9535507,-90.0690745,3.5,214,1
Yp8gbMuCXIWJWoRvkOJcGA,Wasabi Sushi & Asian Grill,30.0213754,-90.1147367,3.5,57,0
LqF5QiIm89Ea9wtc0cdPCA,Dugout Bar,39.758244499999996,-86.1464579,4.0,128,1
Z1whpjCi-3RiuBPUtdK44A,Angys’s Cafe And Ice Cream Parlor,40.1999487,-75.101936,4.5,22,1
YSJZZ1_8uHIIV4w44RSllA,Flying Pie Pizzaria,43.598946,-116.3929,3.0,160,1
5ruJkVZeGooUlKf4M-O6gg,New St Louis Wok,38.5983885,-90.2426749,2.0,61,0
-gZPRSuaHJG7PYHAGFmqdQ,Osaka Sushi,27.8935758,-82.2842946,4.0,52,0
UakVMT3xrpbFB2pHdxPjnw,Crown & Bull,28.0116959,-82.7894068,3.5,668,1
741j8hEICpMzo1N4guth2g,Marco's Pizza,38.5732446,-90.2807262,3.0,17,0
p7bv1603DwdmUmb4F__cew,Firehouse Bar & Grill St. Louis,38.5113712,-90.3186363,4.0,76,1
qHCfhWPyb1GXpzq9Wk3Vkg,New England Pizza,40.0400368,-75.0662936,3.0,22,1
twNHYgtUkxoeFbLHxdhsOw,Daddy Jack's Restaurant & Bar,39.9248153714,-86.1560124953,3.5,93,1
nYuwfmjaYdeJgZU_Q_ugaA,Bangkokville Thai Cuisine,36.0684532,-86.7179603,4.5,341,1
OAHRMd971k-yDQwRxzgc2g,4 Rivers Smokehouse,27.9377188868,-82.4935073,4.0,343,1
neL2xrin-uMJl5ABKyPLKA,The Melting Pot,39.476506,-119.806804,3.5,15,0
yJ2ZRXx01eF40eRQFqIBeQ,Casa Garcia Mexican Restaurant,30.0047127,-90.2240166,3.5,197,1
vZsR5GS4UdbFPnsxNcdvUA,Joe's Crab Shack,39.661742,-86.143827,3.0,28,0
V7TaLZ5EB94hqRIZ1_xjGQ,Kawa Japanese Cuisine,39.9439214896,-75.3488279928,4.5,145,1
Hpe-2Omu5-U3S2NrouHcdQ,Moreno Bakery,27.9360383876,-82.2965455055,4.0,21,0
yFrOuce72KhvW0LpU5FY6A,Earnest Bar & Hideaway,36.143036,-86.767485,4.0,265,1
wI51ie-6j7y5MzxOCS4fNA,Tangelo's Grille,27.7381832,-82.7081043,4.0,121,0
2kWw4GEEZdSPuTc6KV_aRA,Pizza Hut,39.911240181,-86.2204268575,2.0,36,1
WLLmkBjtN8mr2vWTU8aaCQ,sweetgreen,40.0888477047,-75.3892213351,3.5,91,1
LfrCUDzg66jncxLvNxBnlg,Bocconcini,39.9453439,-75.1642327,4.5,163,0
kbFwcVMsHlNNXGWRZpEYhg,Aston Diner,39.8690405,-75.4295109,3.0,125,1
8K_iq2Hvqln7RggyY5L0AA,Eduardo's Filipino,39.738105,-86.120231,4.0,16,0
BWITd9JUXP3gSi1z3Y-z8g,In Riva,40.0078746,-75.1924072,4.0,729,0
wHiPhPVuGnngEieDBMG00g,Mellow Mushroom - Brandon,27.9222603996,-82.3286704227,4.0,391,1
X-BZp1KMgGzKkf_92Y3fWw,Tiki Tolteca,29.9534303,-90.065154,4.0,214,0
NVN_23yYJDf_RAinqFICDA,Hot Diggity!,39.9419555,-75.1532373,4.5,191,0
HKLFG2qKkd5X1IyfwYlYqQ,Chubbie's Fried Chicken,29.9320808,-90.0030653,4.0,70,1
7yPzOek7Af2dKWGYKpcHWA,Khmer Kitchen,39.9274110049,-75.1556555182,4.5,372,0
2Cd4sRn-dI0OkoLxmTi3bg,Sunday's Fine Dining,27.9602008,-82.4372809,3.5,18,0
TQloD2_k3J67Q1J_picgfw,Wawa,39.9771998493,-75.1184864286,2.5,43,1
dSPA4yql9vUwnYRxHiVtHA,Makiman Sushi,39.9466853,-75.1639951,3.5,209,0
L9CKPOoI51LNnRW8B1M8CQ,Dot's Dairy Bar,40.136096,-74.873249,4.0,9,0
GgcvRnt5_z3NEC0D6vNncQ,Cafe Buenos Aires,34.424829,-119.706032,3.5,56,0
-o6bah2j6_IH9pkwANXcLA,Fireside Pizza Cafe,28.0788023837,-82.7657673928,4.0,234,1
rpZrUHxtj5JZuq76FkbNdA,Mandarin Garden,40.1432345,-75.1141046,4.0,68,0
xkYOPbA8AL4jcQIN3xveoQ,The Big Cheezy,30.0154233,-90.2392351,4.0,154,0
R4eAWOt6Kz_rmo8B9FyG8g,Steak ’n Shake,28.0998832618,-82.5016486,2.0,77,0
NaA1lTPxouNLq-zFI3IOYA,Charlie Brown's Steakhouse,39.9133674,-75.3417292,3.0,72,0
RMjHlAejNrLHzF4-G4uyng,Brady's BBQ,27.9906356,-82.6909103,3.0,160,1
zDJoyeohHjEX-Pz6zQfPng,Kriscroix Restaurant,40.1838621,-74.8566693,4.5,22,0
Yv6HUVu7fRMnt_NtGdVQBw,Las Palmas Mexican Restaurant,36.1529191,-86.7984549,3.5,158,1
EaTbY8HFwwF7i3SjVbHGYw,Montecito Wine Bistro,34.4373228188,-119.6313193337,4.0,142,0
4RMHlggaIdNibPUJPVEd6w,Bridgewater's Pub,39.95528,-75.18251,3.5,162,0
C-L3Idjx0RvopgmnkbOpmA,The Original Pancake House,39.913044,-86.186082,3.5,123,1
krIXxF3-vdrnDqtaMv-5zw,Kabob & Grill Indian Cuisine,40.0020436,-75.296892,4.5,78,0
5X43mcuo8-oq9NUZi5m7Jg,Mojito Cuba Caribe,40.3616441,-74.9503996,3.0,117,0
BuQptNNitbz1oylgBlm27g,BJ's Restaurant & Brewhouse,28.1927167,-82.3929411,3.5,301,1
nPgRFNyRYW5xG4MkWzc_iQ,Station 52 Sports Bar & Pizzeria,39.8534084,-75.6407886,3.0,42,0
Lro-qULT-oa4Oz36p1yTwA,Johnny G's Pizza,40.0618893,-75.0832513,3.0,11,0
VhQg78uOp7voj1wkONDvPg,Ziggy's Bar & Grill,39.6960537,-86.3699629,3.5,5,0
9Nya2Xny2gO-83M_oRHHAg,Zac's Pancake House,39.9480046,-75.0283944,3.0,26,0
OIaofZqg0PTnf7srCDlxPg,Nico's Pizza,40.2967204455,-75.1904951565,4.0,26,1
JroMBSRiVq1u8-KZVDZh7g,New China,38.592301,-90.270873,4.0,87,1
kpK6SmxIiNoGPNhlEGiL4w,Trattoria Marcella,38.597361,-90.300388,4.5,383,1
FKrP06TDAKtxNG1vrRQcQQ,Johnny Rockets,39.9419525,-75.1505858,2.5,110,0
NFFS6Qow43IRG6dRPgZCzQ,Cafe DeLuxe,39.508474,-119.802765,4.0,237,0
pJZq57-XUXnDU2yo8gmsUg,Zagol Ethiopian Restaurant,39.5322332,-119.8028435,4.0,160,0
qOdsOVOM98hHj1SCRscjHg,Applebee's Grill + Bar,28.046483,-82.739009,2.5,68,1
ttevmSPHu3dHUHFXBpVX9A,Pizza Hut,28.1443924,-82.3549453,1.5,30,1
U8jSYiECyAljqTL2U1ERGw,Bamboo House of Noodle Soups,39.965781755,-75.5275749265,4.0,52,0
H1ZTsd_d-wvunsT3ZmoBvg,The Pasta House,38.7366952974,-90.3541281756,2.5,205,1
wghnIlMb_i5U46HMBGx9ig,China Dragon Restaurant,32.1323047,-110.9999851,3.0,23,0
RI33oswGDkIsc0fuQ8GzjA,Oregon Steaks,39.91579,-75.1653879,3.5,184,1
i7akkU95QVETwwX8D2qH-Q,Joe Gambino's Bakery,30.006131153,-90.191617012,3.5,151,1
ydY1FKBgpgXvhxpVPMbinA,Numa,39.951392,-75.17062,4.0,30,0
Jy1Cu7KvaVlYCyze8-3krQ,Motley's on Main,38.7771868,-90.4832003,3.5,12,0
3BNO6PRQVJFGlHLar3na_w,Rally's,38.6165837,-90.1940481,1.5,18,0
S3QHy1sshUeZwXOYviVsXQ,Tre Lune,34.4209378,-119.646244,4.0,262,1
GApqfwJMxg4t2tk3K2PpMw,Zoes Kitchen,28.0870493,-82.5048328,4.5,94,1
zpQx8w70XRdOsycrxx7HuQ,Indy's Family Restaurant,39.7293242,-86.2509048,3.0,40,0
viVz0HzP-_CbU07HUCquZQ,K&T Deli,39.8227369,-86.234235,4.0,48,0
AL3_t23te70PJpXklfw_HA,Newk's Eatery,36.1244165,-86.8497567,3.0,65,0
07i5EdI8v2FBhVV-rya8Wg,Pupuseria & Cafeteria Centroamericana,27.9809251,-82.4855927,4.5,137,1
N5QQdPac1cXwOHr-ePr90g,5th St. Bakehouse,39.5289273,-119.8280683,4.0,181,0
N5yjty7R5XN2_hIwW-2Iyg,Jjang Ga Nae,39.9402993,-75.0080328,4.0,40,1
33JlrWf0kmHd2VzW58Wp0g,Blondie's Coffee and Wine Bar,38.632341,-90.198396,4.0,296,1
L3QX19EWlkS-clS68Boydg,Cafe Du Monde,30.0046093155,-90.1880181221,4.5,216,1
syuKX2pH3JJhOOppzNI6SA,Yoichi's,34.4271662,-119.7024792,4.5,184,1
w9hS5x1F52Id-G1KTrAOZg,Wiz Kid,39.9509958568,-75.1723086834,4.5,163,0
nVI9wI9ujmrutJRMgHKSIg,Fiesta Maya Mexican Grill,39.9142377,-75.3478566,4.5,130,0
0xe81EigRw_b5W8tg0Ca6Q,KFC,28.2771645,-82.673909,1.5,19,1
W78GCXLuneV5b6prO-X4aw,Tace Lounge New Orleans Cuisine & Jazz,28.0783164102,-82.507608179,2.5,77,0
ZGErYinCaYR5UjTzovAZbw,Buffalo Wild Wings,40.0166339,-75.6726735,2.5,100,1
FxmQQutiIzlH40hUQmfEVA,The Angry Chef's Corner Kitchen,39.7664604,-75.1439517,4.0,5,0
2kuhZOrWcLYe_XePccr4lA,Cappy's Pizzeria- Seminole Heights,27.9912707,-82.4596841,3.5,221,1
oJRjeio1OBablDFr--__Xg,Precinct Pizza,27.943491,-82.447318,3.5,204,0
1DFvkUjtsqNRNlORaUYlFQ,Warsaw Cafe,39.947091,-75.1682158,3.0,27,0
GUNpbcLvHZLE3NpOifjNUQ,Slate,39.9519011,-75.175709,3.0,124,0
v8IbZ6wcvdyGqWpbDKDvfA,YO! Sushi,27.964536,-82.520756,4.0,121,0
1qQ5CcpsxX37n4PPr1cSug,Binni & Flynn's,40.018044,-75.310483,2.5,25,0
A9rVxmIBtHZRvNhbBaGAWg,Szechuan House,40.2333728,-74.7086953,4.0,213,1
OKPUO8zvBBL-OA6-SfDx8Q,Heirloom Fine American Cookery,40.077882,-75.2088615,4.0,87,0
zMMSWTHxkLWYR359o-IuAg,The Nook,39.5138036039,-119.7880626405,4.0,103,0
cnbaafgtPoap2zpD90uDag,Smugala's Pizza Pub Oakville,38.450163,-90.3073695,2.5,11,0
8s1uT8dyBEUwTNeHoZntMg,El Rey,36.1629191,-86.7761598,3.0,89,0
01Vnpln40zgSK6H6pAcd5Q,Bacon Boise,43.6170503,-116.2041161,3.5,83,0
Wt1W6qwCvna1KzIuJRJbwA,Tokyo Mandarin,39.7119376,-75.1109667,4.0,88,1
4-y4Jj8hNuVIFktoYnm3-Q,Bella Pizzeria,39.9108087,-86.1081565,3.0,66,0
m7uGAvkjyI9iQaLJAmvCNQ,Outback Steakhouse,40.0734411907,-75.4301118851,3.0,42,0
qhsJbgxVNDb0973r3Gjrow,The Block,38.59306745,-90.360696599,4.0,293,1
x1CpCXik31TwTtMPMcrcug,"A Tutti, Ristorante Italiano",40.018238,-75.2115092,4.5,78,0
mMpqV1aCQE7fXic5fNbefA,Italian Village Pizza & Beer,39.9993471142,-75.7256107968,3.0,23,1
_NfEP6cuFSz7bd-7OtiJ-Q,Dots Diner,29.9630374,-90.1517135,3.5,161,1
lOX7LiFDr4FEUZX5AWjXag,Jalapeño's 2,39.5178277,-119.8827455,4.5,77,1
kbbh3rkueBubhJa_QQjwpA,Cajun & Grill,40.087777,-75.393182,3.5,10,0
EjwrtCJDCZBUS_uTvpHMSw,Skeeter's Pub,39.8113901,-75.0676368,3.5,92,1
jE8o7lX3NMmcG0iMlqoo7A,Candlewyck Beef & Ale,40.3248916814,-75.0608575344,3.0,81,1
c3eWB489arZI26M8n4gAvw,Flavor of India,38.672511,-90.446686,4.0,104,0
ZGdk6tO1g6odmfFS94KY4Q,211 York,40.0948011,-75.1257401,4.0,14,0
IS0B5nLJPluVT8NwGgospA,Cheddar's Scratch Kitchen,38.5965175492,-89.9841942417,2.5,187,1
ggJXlslLYndvE7n3hgJBCQ,Capital One 360 Café,39.7496704,-75.5546354,4.0,5,0
-CLLdRWg2JJ6QUVj33HYNg,Smilie's Restaurant,29.9445042,-90.1857987,2.0,28,0
TuYx8LUw7shzFGXQuUmbNA,Short Hills Restaurant & Deli,39.8646171,-74.9648514,3.0,115,0
xJIeT5--AiPdvPb5BRflyQ,East Coast Pizza,27.7903607117,-82.3429241835,4.0,227,1
y0pfoNQOyrb98aEIdH6cnA,McDonald's,40.2104139103,-74.7951225,2.0,20,1
KS7n4ctHUc9IhC7OGmeQog,Chicago's Stuffed Pizza,28.0370281081,-82.6571657675,2.0,17,0
-mq1DwgcLU96PQbmcv3jRQ,P J's Oyster Bar,27.8845027,-82.8495749,3.5,118,0
tNnVxOC_9p8UK3N_2-yCtQ,Beawon,39.9081034755,-74.977176381,3.0,159,0
C3dGeJ5FnETZ4rpwR5dQWw,BBQ BBQ,40.184212,-75.132976,3.5,66,0
L05ILI6HOWCXo3vsih4pLQ,Ponti's Steaks and Spuds,40.077611,-75.302099,3.5,33,0
ccEgmgcc5uLJejser0UD0g,New Castle Bagels & Deli,39.6894569,-75.5813638,4.0,21,1
qC63cwAI-baLmbEdxbR3FA,Joel's Pizza Palace,27.8937222,-82.2684033,4.0,44,0
7biQIoyOEMcBGUw106UeOQ,Domino's Pizza,40.20841,-74.799468,1.5,31,1
vuAI70USd3my2Kb9_9zajw,Joey B's On The Hill,38.6123369,-90.2873347,3.5,238,1
RuBWR6CAgVi7iWR8LHUi6A,Lee House,53.551925,-113.4896661,4.0,30,1
DRr5xdfHtqgWfhmdTU1B8Q,London Grill,39.9675638,-75.1754915,3.0,350,0
720J1v3TX-J95cdTJbCpKA,Ninki,36.1244876582,-86.8488082225,3.5,213,1
D4AJVjAiJULF04BjN7bhiA,Snackbar,39.948831,-75.1740669,3.5,56,0
7O7YHTUB3uqXHsQSLKR0SA,El Jefe Restaurant & Mexican Grill,39.7067645915,-75.6866432508,3.5,69,1
T9n_LqUUhC2b1ALhg57Y5Q,Texas Roadhouse,40.09165,-74.93997,4.0,240,1
IpiQt6F9STI3Dir4dKBSWA,Da Vinci's,39.5252051,-119.8104484,3.5,20,0
7GmQ9LYOoHuvsiaIJuLykQ,Saint Cecilia,29.9610996,-90.0583835,4.5,205,0
kjhIbW8NKRvXmLDwz7lzhw,Margaritaville - Nashville,36.16138,-86.777197,3.5,580,1
8QKDQTm76m6BjPO6MtCYIA,Sherwood Cafe Family Restaurant,39.8563937,-86.0098416,4.5,54,0
ywXa1pDqHPe9tOPx0yJFUg,Otaco,34.4132721,-119.85478,3.0,57,0
-MXWHvyw73IDWzIrpGqkpA,Captain Al's,27.773918,-82.622729,3.0,7,0
k920l7wHSjLZDJLvn-UfyQ,McArthur's Bakery Cafe,38.655785,-90.306723,3.5,22,0
INWHqjudS0vDcVKlHyz69A,Shere-E-Punjab,39.9450734454,-75.3244363344,4.0,147,0
bXjnfT69E8DJinX-ifOofA,Wings Over Broadway,32.221284,-110.885713,3.5,302,0
WjsuXPWARyEYSesvfLVYkg,Country House Restaurant,39.8456236,-75.1791164,3.5,48,1
sLI--1z4vRxCmuL4U-Mr-g,Quiznos,29.9615253,-90.1850427,3.0,18,1
YPnksHT2DQA0AhcxP6udxw,Corner Bakery,40.08705,-75.395706,3.5,63,1
OfW-VK04qr7b7bPm5QbyLg,Taqueria Feliz,40.1807271,-75.1346993,3.0,77,0
NJt2qvQ9NvB7uCxYUnW-dQ,McAnderson's House of Brews,28.0354421,-82.6597432,4.0,5,0
0l_njS4wGMadAk1b4nZRUA,Panera Bread,40.089985,-75.382315,2.5,58,1
XV-jiJ6yb0LXlh4EyEWbqQ,Joey's New York Pizza and Italian Restaurant,28.0511853,-82.7370533,3.5,183,1
ADgeB1sfOGbzCR3LIi-4lg,Cafe Reconcile,29.9399302208,-90.0803697109,4.5,152,1
L2pmVQMrpY-yZwZkZoRt5g,Giovanni's Pizzeria,40.0334795,-75.1758562,2.5,46,1
VOEN8f9WEysinBsLqbiVqg,Andrea's Restaurant,30.0073382,-90.1538509,2.5,218,1
-1MhPXk1FglglUAmuPLIGg,Red Garter Saloon,32.2363608,-110.9252135,4.0,107,1
ThZyytdc_kj2uBYFiSao-A,Arner's Restaurant,39.6800244,-75.5917073,2.0,57,0
forbtWAsfRrLbumFA7cCZA,BLU Mediterranean Grill,40.3104438,-75.1288613,4.0,63,0
I13c2-Yo7hn2BKwCI81HSQ,Bellacino's Pizza & Grinders,38.59159,-90.29389,3.5,72,1
ROcx9FXq206zfI77MGo1Yw,Nook A Paleo Influenced Diner,39.7656419,-86.1581477,4.5,163,0
0wHR5cCTKdCmimhp02cQFA,Jimmy John's,38.5480836,-90.4040511,2.5,26,0
3kiB39JzdovdlOhQj-nMCw,Pho Hoa Noodle Soup,39.9366969,-75.1614094,3.5,116,0
RVqj00jeAxTtopbgRSbsmQ,Old Hickory Grill - Sheraton Music City,36.144496,-86.682805,2.5,23,1
zIUUlBoQOQqQLoi2ElcWAg,Suegra Tequila Cantina,28.0352664484,-82.6549851894,3.5,132,0
PI_edPRnfzjAvv23u8WzxA,Sabatino's Grill,39.974461,-75.682293,3.5,17,0
1LVMlrAQeqLgiwFu06kFfw,The Workshop Eatery,53.4157353,-113.4801255,4.0,139,1
2J6x5uYTXbJzTHbQN1W6eA,Tim Hortons Cafe & Bake Shop,38.6332564,-90.2516314,3.0,14,0
edO1Rej_-_I4vPSVYIZ5NQ,Pizzicare,29.9636392,-90.094284,3.0,39,0
avcOkMsnFse9D-DpIimYkA,U-Like Asian Buffet,32.2166906465,-110.858348608,2.5,98,0
_E0WPHfJEYmwOUCAj-Jq1A,Western Village Inn and Casino,39.5344459,-119.7344361,3.5,266,1
tFpstYqxugKHzeyNUsuD_A,The Pint Room,39.9785056799,-86.1286025097,4.0,423,1
N1ZXhAVzOzbyCBPEXTaUUw,Tandoor Authentic Indian Restaurant,39.9551144,-75.202451,3.5,148,0
A21srfWbl97OWsCn2lK-0Q,El Gallo Grande,27.7543071294,-82.6386860758,3.5,157,0
lhsQkb5nhf-Kd5OvgB9MNg,Sachiko Sushi,32.1336786,-110.9234427,3.5,191,1
OyHbS1sJ4CguExlWa-XWDg,Red Lobster,30.0074264,-90.155475,2.5,122,0
AmnnsJq4Pz1jJUFzHwtsOA,Chipotle Mexican Grill,39.912878,-86.134275,3.0,65,1
ndRRvkUHQ1ruKBjdgP7kcQ,Back To the Garden,29.9443708005,-90.0743716931,4.0,33,0
OHplb2m_dKPXY46mS0CqJQ,Stella Sera,40.0770647,-75.2087089,4.0,48,0
LTTRaIO-p4zjvXtw9zm1Wg,Mi Caribe,38.638548,-90.2366249,4.0,96,0
7mpYTDb24SywNMRn3yeakQ,The Twisted Tail,39.9418766,-75.1451988,4.0,604,1
HA-X-YkTt9K7c-fkhE-g4Q,Spice Thai Cuisine,40.310469,-75.1288907,4.0,65,0
US2-dEVvnOdde7Syi18TTw,The Mason Jar,30.0168005,-90.1869461,3.5,90,0
KxrXqdsgT7lcghhNk00z6w,Jerry Bob's,32.350026,-111.0994,3.0,33,0
ju1qrGJ1mcc1sc2oRX7X5g,West Coast Taco Truck,39.869476,-86.1436545,3.5,58,0
dcpWZ6Yk_S0HqTlNBi8jiA,The Woodrack Cafe,53.5124378,-113.5120394,4.0,60,0
CPPOKMjjE3-au0BWdbC95Q,Bistro Habanero,39.4985823432,-119.7485957667,4.0,243,1
QUxFneps0qX5S8XpEUnazg,Piranha's Bar & Grill,36.162251,-86.77571,4.0,75,0
xtSxYDKUmbhRx93CXoG2cA,Sam's Grill,40.0901014,-75.1266017,3.5,6,0
gT69S0R0gpmxwjCLznwT4A,Gio's,28.0274726,-82.5014256,4.0,95,1
bmz4siaejdjs4_yS_mYW4A,Cool Springs Brewery,35.945213,-86.821891,3.5,264,1
2jvmqojTdrdj3YboXzKRcw,Something Grilled,40.0341555,-75.6335018,3.5,75,0
eWGdkt9fdwg7aKboaZIVQQ,Uncle Maddios Pizza,28.1279022,-82.504413,4.0,103,0
J5-Y4ujpElrzPGJLYJ4tEg,Blue Moon Gourmet Pizza,39.5198936,-119.8125088,3.5,84,0
fNssGWMjae-SUzyyGblspQ,Apron,39.8971069811,-75.0342256956,4.5,24,0
-sSGKR1V1oBm7BJicIXozg,Barra Rossa Ristorante & Wine Bar - Downington,40.0060495,-75.7049884,3.0,100,0
_ic0Q-ptC259Kpu8lIWxTw,Gia's Pizza,38.5924645,-89.9112149,3.5,96,1
TB1FQ3iO9KJWOU56sA7Ozw,Boardwalk Pasta & Seafood,27.7133102,-82.7143138,3.0,61,0
qXZooaeOrKHCrLHK99VHwg,Chick-fil-A,38.5899403,-89.985405,4.5,78,1
g2JHAYFX2tOJubMHSXdYQQ,Fatty's Bar & Grill,40.0818823,-75.1890789,3.0,38,1
x7_p5O3ChQa7shdHCcLHZQ,Olivier's Creole Restaurant,29.9510658,-90.0715323,3.5,172,0
xkTjLbBC7uB-rAIDqAm-sw,Los Comparres,27.995155,-82.48414,4.5,339,1
g18Wy2StxSnriHOoauq9Xw,The Pizza Pasta House,40.178969,-75.108893,2.5,5,0
NF8sBMLJaLvYe5nsS92YcQ,Ben's BBQ and Beer,40.1255792,-74.9622877,3.5,29,0
YSQkA13M3dVSrWynCqybaA,The Pink Dolphin,39.9665611,-75.1399345,3.0,36,0
HbZDCqcp3wWEJ21M9sfTXw,Orchids Thai Restaurant,28.2828536,-82.6975165,4.5,143,1
T4-vocFpzwlIxAQIi22FFA,Another Broken Egg Cafe,27.98128,-82.82624,4.5,511,1
Z4Yfcktc-2RhNprA6l35lg,Pinocchio's Bar & Grill,39.5784009,-119.718216,3.5,154,1
_VB4EIoGdAR4sBB6rApEAg,Pop N Sons Diner,27.9897139,-82.5057506,4.0,160,0
ZyOqGKdr5JetY4jgD_UoGw,The Cheezy Cajun,29.967159,-90.0408025,4.0,95,0
F2C5ENuY8CXfgoW-gAMdDA,Revolucion,39.7524474,-86.1386729,3.5,456,1
Xkn6vebYLTY1aCe2J07MfA,Heffe,39.963057286,-75.1643311232,2.5,61,0
sgKIKeFXSUHLeOcX1q8nQg,O.E. Market,27.9445699,-82.4638901,3.5,10,0
psD0qpCK-iENFO9c8hmnkw,Famous Crab Cakes,39.8163658,-75.4563007,3.5,37,0
h85b3MFPWyaopMBy8DpBpA,Ron's Caribbean Cuisine,40.0407573,-75.1448014,4.0,142,1
SdZvOwgALlSBt8A0DvVkuQ,Reno Tap Room,39.469099,-119.786907,4.0,45,0
mm4gSCCJXuAZFWDkESMjmw,Green Iguana Bar & Grill,28.030793,-82.540639,3.0,24,0
AOlB9GRr5v89k_Gof3b_DA,Hobnobber Cafe,29.983473,-90.199623,4.5,30,1
2iQucreJtTqbEsLczhsgrA,India Sizzling II,39.830272,-86.242362,4.0,169,1
DXYhpEv17mWqSqFjau7vhg,Eatalia,39.9749514719,-75.1184531736,4.0,166,0
aktzDUTYcNrXnJNXTIVgRQ,Kelly Days Firehouse Tavern,27.9604839,-82.4400832,3.5,41,0
ymoEdJB5NE56sWw74uyX7A,Sushi Bar,39.8694324,-86.1425102,4.0,346,1
vGgAW3kLPjRFQCrndE6l9w,Agustín Brasserie,32.2201355,-110.9856285,3.5,41,0
u87CeGYMCajDUlFvvjmttg,Yia Yia's Greek Express,28.0923627,-82.7404529,4.0,41,0
IfZ5Xqh5VNxM-HDhKPUlXg,Augusto's,40.1993886,-75.0904751,4.0,85,1
ROeacJQwBeh05Rqg7F6TCg,BAP,39.943223,-75.162568,4.5,205,1
DOydgEG9DzmM74QSz4btFA,Wendy's,39.9564086,-86.0117188,1.5,51,1
WDXC3W5lDt2pK2qvw6ds3Q,Tortugas Mexican Eatery,40.180349,-75.454371,3.0,106,1
p3Vbzk03kNiI0tr181qamA,California Pizza Kitchen,39.766304,-86.159322,3.0,49,0
Si6LXSR9gvAbmgO5DzV2cw,Lafitte's Landing Seafood House,29.8754822266,-90.04938,2.5,38,0
UaovDcnP0QzsmGf6vXvg9w,Rocchino's,39.948818,-75.1456539,3.0,20,0
b4DcNSlKBGIoOmX7PLxmWw,Wildflower Grill,53.5392274,-113.5044906,4.0,105,0
m2gjRN7GHMpdwUkvquA_rw,Karma Juice Bar & Eatery - Saint Petersburg,27.771358,-82.6504963,4.0,196,1
cN4Y09a7clgjFd1tY-wSZw,Don Pablo's,39.829157,-75.092593,2.5,154,0
Y3ZCO17N1_T_Ms1JmswwzA,Taqueria Pico De Gallo,32.1920174772,-110.968540052,4.0,397,1
E3xBC7Bb6KRlZeqcY3bWtA,Build-a-Burger,36.1084621,-86.8164366,2.5,38,0
WMgB7_odx8hk3BFQAIZ5hQ,Thai Phooket Smyrna,35.9317024,-86.5338211,4.0,76,1
ovLgaPIMrx7PDZPrEpTMvg,Mei's World Pizza,28.0807642,-82.4318998,4.5,117,1
e86IBzGCsrnhJbD_wELj7w,Herbie's Vintage 72,38.6488432,-90.2610791,3.5,141,0
0hIXH9jMdHov1VrLC8ujUg,Al's Finger Licking Good Bar-B-Que,27.9592488,-82.4390309,4.5,409,1
1165tVWCcxFvYoHT1-I2mw,Prime 108,36.1573654,-86.7847179,3.5,113,0
A_-Vv5oKZNqxsV69_7E2KQ,8th & Union Kitchen,39.7524434,-75.5711769,3.5,177,0
qGeH3eaIgJH5jctfLRT1Xg,Trattoria Branica,38.6330328,-90.4101201,3.5,27,0
FZCj995CEL2G-JTiLC3Azw,Taco Bell,39.80109,-86.15661,1.5,38,1
hJrhf5N_B8ifYqHQJwFAEw,KC QUE BBQ,28.1460042,-82.7532441,3.5,49,0
17Y8circEnkMMXKfLo8Ztg,Bitar's,39.9346516,-75.1602726,4.0,154,1
TK9x9sCWRDwtiV5UAzrRTg,Viet Pho,39.506702,-119.8014425,3.0,87,0
mCo2uVTTGYrEhRrkQW-CMw,Empress Garden,39.9539403,-75.1563093,4.0,263,0
t5RIuLUvE5fxr0TaRWxeQg,Il Tartufo,40.0255207,-75.2232588,3.0,85,0
RgAUDZXDJYwz7BI6u9aP5w,Reeds American Table,38.6128297,-90.318067,4.5,372,0
peL7F35gY6nXuXDD-08LAA,Asian Kitchen,28.0512845,-82.7362063,4.0,51,1
rdtMeOwRcXw4mJVxiBQ_IQ,La Mesa Tortillas,32.3245749305,-111.0432738044,4.0,64,1
YKpZ2Ml0NZoYZ5eb3r_Cdg,Valentine's Restaurant,38.4242058,-89.9087975,4.0,30,1
s8KNTkHGjMnzx5zcnWBbwQ,Famoso,53.598225,-113.573125,3.5,60,0
WWnRdTjwaTnsLSJX95j-Zw,Hablo Taco,27.9430540651,-82.447500625,3.5,268,0
jlkDIOPoRP9SJXTkRVpkMQ,BFF Cafe,39.5001633,-119.8576794,4.0,92,0
1aps22WlhV4bHPaEQZxkKQ,Market Grill,38.6099959,-90.2015738,3.5,32,0
JYDd5sgn18DqDnTnq_tBRQ,Las Trojes Mexican Restaurant,39.5885582,-119.7254333,3.0,106,1
p21PCK17H3WL56KSr4Ykig,ABC Pizza House,27.99554,-82.4743805,4.0,121,1
fLk_N8vU25DNZmbU-70gkw,Chipotle Mexican Grill,34.4190289,-119.699083,3.5,57,0
7YiLEuHuUONZrMPT0OxXUQ,McDonald's,39.530632,-119.814276,1.5,89,0
N-CBZKO37y_WSUN7ZMNGkg,Taqueria El Pastorcito,34.4397058,-119.7708382,4.0,66,0
jW4a3W9-UkFxpglHvo_Kqg,Meun Fan Thai Cafe,34.401169,-119.721505,4.0,195,1
vLwlU-_WAZfC-6VIdIK12w,Queen's Pizza,28.0666468,-82.7205727,3.0,45,0
v_0WykkMaIvYttp79mnyfA,Godfather's Pizza,39.515644,-119.82759,3.0,58,1
XgLrkmIqIrD_pl67lAovEQ,The Bourse,39.9498192516,-75.1486551501,2.0,35,0
2SYEGA2fZLdzZQ9lmIfM5Q,Urban Village Brewing Co,39.9667,-75.13997,4.0,221,1
w-O9TAg-7KH038ueOoi5WA,Seorak Teppan & Bar,53.5183542,-113.5106183,4.0,46,0
qu0qoXXxVVDxMaof1SFzXg,Devon Donut & Bagel Company,40.0423593543,-75.4775739436,4.0,21,0
C1QkJ4s_p3hMTrvOgM7ssA,The Enerjuicer,27.9451157,-82.4978944,3.5,122,1
nvb8SFi1-LzaQHEhUnw_7g,Gators Cafe & Saloon,27.7825495,-82.7816064,3.0,301,0
Ugoyu-TIppruxRTkbej3lA,Sole II Soul,40.0286051611,-75.2275279909,2.5,34,0
fJNSx1WOo77TmP7Bl26w_g,Washington Crossing Inn,40.293684,-74.871315,4.0,144,1
rOsC1rDpIxvNoHxEvNFjeA,Backspace Bar & Kitchen,29.9534413,-90.0675267,4.0,443,1
kd0Sv_ZjnBhbMxs0U4KgQw,Buhos Latin Fusion & Bar,40.1345197,-75.5132178,3.5,60,0
Yv9KUZ-N3otoKUtToPPxAg,The Hattery Stove & Still,40.3096366381,-75.1309594139,4.0,274,1
37BpNvlEAT6WVGsksrHbBQ,Batter'd & Fried Boston Seafood House,36.17702,-86.750815,3.5,318,0
vUrTGX_7HxqeoQ_6QCVz6g,Suraya,39.9736865005,-75.1339557767,4.5,1121,1
fYXCk6Usfd2wzyaBBIM4dw,Rasavat,40.0859735,-75.0463612,5.0,28,0
a2ITIJRAY4Eo-xTH0vN95A,Chili's,28.1318904,-82.3635819,2.5,67,1
OPhWuFj83RDS9O1qU21X8Q,Dunkin',39.7358839486,-75.0701392155,1.5,13,1
GMsGB-hppzbYWyCYIM8xvA,Chopstix Asian Dining,32.3565544,-111.0952546,4.5,50,0
G1fQJ8k5U1gdX0vWODCZYA,Cafe Nino,29.949863,-90.1274815,4.0,63,0
a24bmNPatJARqO1H4QnWgQ,Blue Quill Chinese Food,53.4604772,-113.5313926,3.0,26,1
r9j3Ri3D2lqD2ToA49qmzg,Tarahumara,38.593755,-90.230831,4.5,24,0
oGdbvXKXVCQ8WC_GQePDkQ,3 Sisters Café,39.8690303,-86.1427806,4.0,358,1
Tvkc8tyVUwodaR1MJAw-aw,Pizza Guys,39.5273478,-119.8816559,3.5,103,1
gXg277YblY5xsaeMzJ73TA,Wang Gang Asian,38.7872317,-89.9815262,3.5,168,1
CS_GzUYlEPa6QHTRY224wQ,LongHorn Steakhouse,40.1274771937,-75.4040751479,3.5,104,1
PwOo8MzMxUpCN1gWtnv45w,Fat City Diner,30.0088013,-90.1614698,2.5,16,0
Y2jDVmMpRzQRg6HkNvQc8g,Smyrna Cafe,35.9416454189,-86.5283457257,4.0,184,1
5wgoIQXyP3BEPZLiVi1W8A,The Howlin' Wolf,29.9426876,-90.065991,3.5,213,1
uTq9qVkOuxjBPjqC7K0XYA,Crumb de la Crumb,36.0766235147,-86.9214415865,4.0,147,0
GqUv8rF5h3ZZFfj7S9tgyQ,Taste of India,40.0735889,-75.43014,3.0,155,0
RWOqFGfUrdL60jOrtxmcGw,Osaka,27.8020018,-82.8020813,4.0,49,0
tz3Vj8nR3CKe3nZrZgJxVw,Aroma Grill and Bar,40.0922927,-74.9418765,3.0,8,0
0GsYSmfpsUpnTnxYbH045A,Jimboy's Tacos,39.5447743,-119.7711718,3.0,44,1
Rfm8upoRKXQACvtjk2S6KQ,Joe's Crab Shack,38.60234,-89.9888055,3.0,65,0
hKr-RKMVpj3gRkSWcjg3Zw,Antojitos El Arriero,30.004618,-90.241026,3.0,14,0
5AOkxsg6UJQ_CoJTMBDUmQ,Ralph's on the Park,29.983468,-90.098151,4.0,299,1
Ey0t4U6yqtxCeMaGPf7GcA,Brummis - the German Taste,34.440696,-119.732304,4.5,111,0
Dpvyaemt0E9u9HwByONbkg,Nameless Pizza Company,39.7527339,-86.153298,4.5,22,0
VrGxoSNZfSiT-G4OqRRGIw,Sunset 44 Bistro,38.5832229,-90.4071872,4.0,73,1
YAUUdbESr8BYQ_TFgDjT5Q,Tokai Sushi Hibachi Steakhouses,40.0865991051,-75.0379489,4.0,209,1
1l5AyvTM4ZTeOVuFxadizA,Newk's Eatery,27.9600016,-82.7287208,4.0,178,1
2brttsiFBlW8070dsPzQDA,First Watch,39.769421,-86.1595979,4.0,320,1
B03ajYBGDkZrIDB9lRTwUg,Valentino's Ristorante,36.153864,-86.7976111,4.0,160,1
aYJjJMN8heS2PmkvsQzaZg,Treme Coffeehouse,29.9654586,-90.0695669,4.5,137,1
h-bXrwqcxFA5cz_ATTIQeA,The Egg & I,35.9518831,-86.8067593,3.0,39,0
dk9zGFRJD2RXkHqAmFHOOA,Garage Pizza,29.9668143,-90.0895672,4.0,6,0
MZW_eTFYFBvHYg5OFqDRCA,Red Robin Gourmet Burgers and Brews,39.831258251,-75.5375142284,3.0,118,1
kQRB8RNwd7cEMcURTS-I7A,Sabrina's Café,39.9159547157,-75.0684280694,4.0,570,1
Bw0cpnfI-Y9QmjWzqS-oFg,Izumi,39.929738,-75.1633963,4.0,219,0
2x3wM06LEbaAR81AeKk44w,National Pizza Company,38.598915,-90.243148,4.0,42,0
DVbsnj9WH8Qd5exQZ4SV7g,Papa Murphy's,39.5563723,-119.703763,3.0,31,1
6mCsrUp9Vl4iXMbOxWtVjA,Dosa Hut Indian Grill,36.0810108,-86.7280648,4.0,99,0
GJnYFvk9kbM182bKMFSAvg,Peno,38.6427205,-90.3334042,4.5,152,1
6CsLAjWXFlLpErBZEmGQ5g,Sky Cafe,39.9208882,-75.173682,4.5,135,0
dISs1oH_xeNAOOEcmJiGZQ,Cajun Kate's,39.840243,-75.496849,5.0,140,1
p5OEYAsKeMjNKZI-gZiQrg,Oriental Pearl Restaurant,39.8397704,-75.442211,4.0,154,1
0z-unL2UdJn40PYiou2bnQ,Manny's Sicilia Pizza,40.0039604,-75.0225524,3.5,37,0
PV-QIZ3ljjjFBBrBk6s3Gw,Porter & Luke's,29.9874329697,-90.1406158759,3.5,100,1
Yl2iZQZ4EB7N2vnZDYqoIA,Dunkin',39.8777809,-75.1137437,2.5,9,1
M0Cb0ufPxOSHSrZAKMmUmg,Caposey's Whole Works,28.2532744192,-82.7271687984,4.5,212,0
A0F-h3xJm_6gHDKcDQwSrQ,Capogiro Gelato,39.9541715545,-75.2013800841,4.0,252,0
5l67axuAa5EmEV3lLuSa1Q,Smashburger,29.9233129,-90.0877986,3.0,167,0
-2ke_JDOpgTZWqirMFjZcw,Nite Owls Saloon & Grill,39.71531,-86.081227,3.5,17,1
vzvm7_QXEDaMTxMOKLBNyQ,Guilin Chinese,32.2358788,-110.9234611,3.5,116,0
eiI6ur0iXBnVjxPqLZagcA,Nawlins Creole Cafe',39.7790708,-86.4009224,3.5,8,0
mLUWI7YYwaqTWgmbjOXvKw,Tony Luke's,39.9400247295,-74.9742455897,2.5,93,0
lB6jIOb1UBATmdfot4KJew,Soco's Gyros,38.5245347,-90.355678,4.0,126,1
aerbI0ICiEMIgeSUaLEpHw,Tokyo Japanese Restaurant,40.223632,-75.401727,4.0,59,0
71b0dSgq1XTYYYWs24Fhow,Poké Poké Bowl,28.1551896,-82.7638098,4.5,68,0
8-AIbFaP6GP9BwHZdclBog,Oh Yoko!,39.9110535,-74.9915109,4.0,108,0
zwTmOj4B_OVPMTMYijQiKg,Queen Sheba,39.9489954358,-75.2135489881,4.0,64,1
hr1XaVzp6htS41LjwKjIbQ,Stella Maris Restaurant & Hookah Lounge,29.9594566,-89.9931219,4.5,78,1
_v_iFg_1a7nBBJVy8O02HQ,Shogun,38.6758808,-90.4633168,3.0,24,0
yBebHQPEvz8OtYKUO45QCw,Eden Korean Restaurant,39.9110535,-74.9915109,4.5,32,0
9KdfNHyH4LLxHZaNG_GimQ,Shula's 347 Grill,40.0722222,-75.3086111,2.5,14,0
Yeef_hlUbSIRWog3dVortg,Parrilla Grill,43.6298459,-116.2031504,3.0,139,1
O9W0Qs32RL5kU2_9oqZCKQ,Pho Hoan Pasteur,53.4596423757,-113.4331740439,3.5,32,1
uoMWvXch6sWnI9FMsE_-Vg,Cafe Napoli Restaurant & Pizzeria,39.7285666239,-75.6535895169,4.0,114,1
Edg22x3CZkIv0GUib2oEFA,Mellow Mushroom,29.9486236188,-90.1312502816,3.5,149,0
hEMNTKjcnhHxw9NRprl3Jw,Beagle Tavern,40.108864,-75.3252393,3.0,15,0
_8zIpeRbMVwwyuUngyuemA,Cafe De Manila,39.5138008,-119.7879023981,3.5,110,0
7Diay8IQXxvUfSa9TwR34g,Erbil Kabob,36.0923548,-86.735086,4.0,39,0
5cpiSREZioyiHVHXJ9WRqA,Sam's Sushi Bar,36.1640086619,-86.7784373214,3.5,90,0
luXBhJkuhBAKNCjByulizA,Bagger Dave's Burger Tavern,39.9159698486,-86.2260131836,3.0,83,0
-3AooxIkg38UyUdlz5oXdw,Chase Restaurant,34.421931,-119.7021852,3.0,436,1
_PiS4MmBmQmkOoLmo1p31A,Publix Super Markets,27.883212,-82.83404,3.5,18,1
lq7dE9c10OvRfd_edJoyMg,Due Lune Cucina,34.412192,-119.689592,4.0,79,0
6mnotS2bl54IN7ofeoJqgQ,Taqueria Los 3 Toritos,39.5458286,-119.7840902,4.5,63,1
rE35KDAIC_nIAhurQCaCMA,Texas Roadhouse,39.76441,-86.33975,2.5,174,1
UhSVDwQFW6mKmaEA5OTU7A,Sansom Kabob House,39.950303,-75.166856,4.0,128,0
Yz5g03DQDPFLSHMwTPoi6w,Uncle C's New Orleans Style Fried Chicken,36.0400420597,-86.745242737,2.5,10,0
cwSlDlrmK1qlOWH9zDuNKQ,Domino's Pizza,39.8953038,-74.9212882,3.5,24,1
Z5LGSHEYjCUtKwjKotCNqA,Chinese Delight,40.0477909,-75.409318,3.0,52,1
ls4-Q1KYVP7L6H4eMTQx4w,Cheeseburger Island Style,39.4677256,-119.7844423,2.5,42,0
0zf4KKZqbqoxiuKzeZLDdg,PrimoHoagies,39.949216187,-75.1590522333,3.5,65,1
jZy7m53Eud2cGOAPSum4fg,Dragon Garden,39.9380704,-75.3488889,3.5,22,0
nl_La1sCrZG0xq0HNt4WsQ,Gianna's Grille,39.9426854,-75.151963,3.5,78,0
Knd4u3v3I_6SbAzp_gbXaQ,Mr. Sebas,28.0166144,-82.123249,3.5,20,1
Gpf61fcPpeUgnG0aMEbhoQ,Holiday Inn Philadelphia-Cherry Hill,39.9217056509,-75.04126,3.0,92,1
u4SoM_ljOMxmuQ8GIr1m8A,Dosa Hut & Chaat House,40.1496675,-75.3975398,3.5,147,0
VKBuUNM_9TGvle-Agq-bjg,Regrub,53.5185015099,-113.497550413,3.0,48,0
adb1hOYICrJ1Ix8M0sRpbw,Kuzina By Sofia,39.9124556,-75.0022657,3.0,125,0
q39t6-a47CLf1RTyqu9CYg,Sake Cafe of Elmwood,29.9615757376,-90.1848206675,3.0,110,1
0NkRPv4QdGubH4xVD1DuNA,Jersey Java and Tea,39.9012429,-75.0375449,3.5,134,1
niO5BJmsVDVqxQ47TZBoxw,Domino's Pizza,39.9046721,-86.0664693,2.5,13,1
RJPRi1pwocHNZr9ISz_P-A,National Underground,36.1617952,-86.7744663,2.5,126,0
QrO4-F28JK4mQLP3eDbQ0A,L'Acadiane,38.6174084587,-90.2127941054,4.0,36,0
H-1qpp_77KggOAr9htUrEw,Cava Restaurant & Bar,34.421378,-119.644135,4.0,367,0
Yaqg1BsxEH3iuunV4mZXNQ,Chuck E. Cheese,32.23669,-110.8614,3.0,57,1
qpfMY-wl7sm1SChElC6vtQ,German Bistro,27.88766,-82.493632,4.0,25,0
piUZEndStsWNnRUwOPk8jA,King's Garden,40.074311,-75.202909,3.5,83,1
mY02hIpeZSVCaWObvvyECA,The Good Pie,38.6357301,-90.2249506,4.0,126,0
62pABDhLkUPAcNgxum_mpw,Cafe Provencal,38.576005,-90.40718,4.0,116,1
tr366vgAkbcpJBVKSdBxZg,Aldertos Fresh Mexican Food,39.5576310319,-119.7913073049,3.5,238,1
CiDF-bnN18SBrGpMGFybSA,The Hive,38.666688,-90.443835,4.0,54,1
MTSW4McQd7CbVtyjqoe9mw,St Honore Pastries,39.9555052,-75.1555641,4.0,80,1
h0Zxv2SpGNzZGZuJAiS1yA,Jackson Bar + Eatery,32.2574826137,-110.8034461364,4.0,95,0
ga7jZd-JccpMqdSTgY2lUA,Marjie's Grill,29.9632507,-90.0890782,4.5,172,1
2nUzpVFZVyGoD-RVhz-1KA,5 Star Burgers,38.5783262163,-90.4062532216,4.0,128,0
UtfRoSHPShDwNBc1lLlZbw,Dingho,38.5689735,-90.3378223,3.5,42,1
TUhRukcZb3tG0cB_X68FCQ,Noboru,40.2344628877,-75.2367362469,3.0,176,0
3_kZ2pDiKJLZ9kGKKOWqdA,McDonald's,39.8658758188,-75.3417693079,2.5,15,1
3CsBRtDT5WOUu8IY0mHhXw,Slices Pizza,40.0096537,-75.1954732,4.0,122,1
_zU8uJthn3o5swP0LmfuqQ,Dots Diner - Williams Blvd.,29.997378,-90.241623,4.5,234,1
6ro0Uy6TCDZ-R3a90Dnt6w,Tim Hortons Cafe & Bake Shop,38.6127926,-90.2078913,3.0,13,0
t1P8sQvq-XkljRDPocBZSQ,Bruno's Pizza & Restaurant,39.89429,-75.059645,4.0,104,1
G9JqaURDTC_pSzji0bytwA,Port St Peter,29.958496,-90.0652404,3.5,83,0
j8NhrBzy1op0BfVGdSOiXQ,The Creperie Cafe,43.588937,-116.278166,3.5,131,1
YyKB2S6YBd7aGNeIyc_sag,Empire Deli & Pizza Co,38.632377,-90.19632,3.5,61,0
71q2UD1A7KL2q4AA8mPobQ,Urban Eats,38.5808008,-90.2410679,4.0,88,1
UqXyn-KwePFVhvo1rbQVVw,Tutti Frutti,53.5533117,-113.6139411,3.5,30,0
tXfeVYKJq-bGPx1sjHOMHA,Village Inn,28.1866210597,-82.4428262548,2.5,61,1
n-BSZepKeRxKH7QXXfJvsA,Ko's Pizza & Cafe,36.1875317602,-86.4104937287,4.0,47,0
boLOUdV5T1O5a1cWaClfDA,Mary Brown's Famous Chicken & Taters,53.4763431,-113.4175718,3.0,16,1
qWnjIYmfBdWUTelGor0rEA,Riccardo's Pizza & Restaurant,40.0202792,-74.8842229,3.5,19,1
Q_4XtUDxWDasRhORDaC-jw,Five Guys,28.1930102163,-82.6380369067,3.0,48,1
4SQ5uczVt66-GGGeNQRfEA,Rotten Ralph's,39.9484876,-75.1442086,2.5,200,0
Zh8X1au_crT9jBs2LlPb2Q,Aldine,39.9519296405,-75.1721942396,4.0,156,0
y5o2VSvj42KrXrotY3GTgA,Guo Bin Chinese Restaurant,38.66029492,-90.3585147858,3.5,51,0
OcatdPIYh9X2Du3Lo5YKOQ,Sassafras Restaurant,30.026475,-90.054534,3.5,204,0
z7em5co2qckbAXoDGXynsA,The Blue Duck,38.6129446,-90.3198856,4.0,278,1
jIBjZcqVOU4pOVT-sVQcfA,IRB Sushi,27.8838367462,-82.8499069214,3.5,51,0
hnJ_Bt2-Io_Mdf9p1KlprQ,Joto Thai-Sushi Clearwater,28.0126269,-82.7317198,3.5,37,0
jjK2eJS43eMBQEBddYldnA,Guru's Indian Cuisine,40.2328315,-74.9375601,4.5,356,1
IUgQmteI-mbt_qjL2ZENKA,Epiphany Restaurant,34.423515,-119.706222,3.5,29,0
ygS0u9G_VUeV0nF-iVDRQg,Old Times Kafe,32.2718119,-110.9980488,4.0,76,1
50TGaB-hcv4R3QiWUmIP_w,Haveli Indian Cuisine,39.763322,-86.157723,4.0,130,0
radib3GHt_Up9-zhUjM1ew,Red Robin Gourmet Burgers and Brews,28.016693,-82.734672,3.5,175,1
GZDkhotwnmGlpYUKxAwobw,Bullard Seafood and Grill,30.048176,-89.9622058,3.5,41,1
HJNRlG5nM4Bxy97PmNNaTQ,Aman's Indian Bistro,40.2867500339,-75.3982785895,4.5,38,0
zCGoQt3VCVP0iT6WtIeHZA,Sicilian Pasta Kitchen South,53.4537365,-113.5255242,3.5,97,1
d8tLbQ9o3aVdOLgueJtYXw,Jay Bee's Diner,53.570187,-113.39821,3.5,37,1
qKswqEe67vJJSW05W7Rx-A,Mizu,40.17348,-74.831247,3.0,23,0
xppn6ViiUkZT_K_OswcB7g,Tamarindos Restaurant,40.1141849,-75.214404,3.5,118,1
c6xOzTbNqD-1g9PoxAh4DQ,The Wine Loft,36.1520443,-86.7846698,3.0,36,0
LswO4EWgN99h6NEEJ7qtCA,Smoke 'N Barrel BBQ Shack,34.4286795469,-119.8718033085,2.0,66,0
zTGzoge9b_U1m7lExiHqgw,Sarku Japan,28.069684,-82.576808,3.5,20,1
LJ7nGzqbmY44UZFVEfVNXw,Goose Creek Grill,39.931375,-75.549988,3.5,70,0
oCbJpGl8IkH1WdYa25TDBA,Morrow's,29.9687482,-90.0510926,4.0,831,1
hDVpw1PSS31uFUCOsI-eog,Mi Tierra,35.9408499083,-86.5285620676,2.5,44,0
cMf3Ej3KNBoN2sIpLCm9Rg,Zoes Kitchen,40.1658328,-75.4799696,4.0,114,1
4xEJiEQERBvr2jAZQSeF2g,Mojo Tapas,38.6022635,-90.2425258,3.5,91,0
G3u9BQ7cc-IcXOfNyFKmnw,Wasabi Sushi Bar,38.6039221,-90.3831446,3.0,101,0
R6YhZypd362pEJvl1jN0EA,House of Blues Restaurant & Bar,29.9533917957,-90.0662829,4.0,165,1
FtkYGVPVCRuuhQhYJBSVQw,Zimmer's Seafood,30.0083429,-90.0644403,4.0,81,1
5eHCzcKiJ0hQvy6qjYuMSQ,Basil Fusion Bistro,27.9654832429,-82.79766873,4.0,36,0
sway6xsRT_CUC6peK_Pyww,Bobby Hotel,36.1647114553,-86.7793040316,3.5,178,1
ZsNUYyKsYz2XGa26230SuA,Hong Kong Restaurant,40.0725015,-74.7211101,4.0,19,1
oqtsxtnbyAlFiDGAKwUOqQ,Dolphin Diner,40.0672998945,-74.8716545105,2.0,45,0
ySXKjndttZjNy3kcqRqG3g,Islamorada Fish Company Restaurant,27.9345402662,-82.3332157323,2.5,136,0
jkkzfaJf-MTG4nmJcX1zzw,Bevan's Cold Cuts,39.9649478,-75.59756,4.0,15,1
nX-8oJQFZGVyLvjDCFAzXw,Singapore Restaurant & Sushi Bar,39.9204608719,-74.9459942,4.0,98,0
SySSMQNIfXN4KZyMtEukEw,Boizao,27.9592681,-82.5228184,3.5,66,0
LMY6MT2btyp6q3eXWB2LMA,China Wok,28.188054,-82.668902,4.0,44,1
wZhGuW7vQpfhxeEvLHkTrA,Express Cafe,43.6196488,-116.3871392,4.5,119,1
MN-Em6pY0ZXZQsLv6uBhrA,Asian Garden,39.9576083,-75.2036365,3.0,10,1
od6skmfXz9twktEAuJHEmw,Ryan Christopher,40.0099504,-75.2591858,4.0,120,1
SvymuQGYaUSqXmvh5HiPLg,Logan Inn,40.3634673,-74.9514504,3.0,111,1
lZEYIL95hZsZS0vgaoR2aQ,Pizza Fusion at Skypoint,27.949853,-82.460193,3.5,113,0
yq6QpxblbjGnqmEeeukfYg,Yummy Yummy,39.8653498,-75.0784989,4.0,26,1
cPmeskhu9fAdyf-SC9oxYA,Fox & Hound,36.30515,-86.700386,2.0,47,1
q_CK-buoiPFNDoNNU1yb1A,Emerald City Cafe & Catering,39.5001531053,-119.8577276999,3.5,32,0
HQ-C47_Xi5it1KzwEc0u0A,Barbarians,34.4170059325,-119.6960398541,3.0,96,0
Rx5lfHMWkezmQjCfr2ziAw,Eat-well Food Mart,29.9654875,-90.0878568,4.5,126,1
S2vd-D9_xQn0Jx4Iz1GbKQ,Polly's Big Slice,39.7748396,-86.1148802,4.0,9,0
iJKOUYgigs4VYsWny6AtEA,Ciao's Trolley Pizza & Grill,39.7572041818,-75.5618576333,4.0,77,0
hXBeTdtREKEMT2FMmzRPhQ,Steak & Pasta House,39.5267893,-119.8125674,4.0,59,0
fXsdsGnTntaRWbfUxP3wXw,Taco Bell,28.068941,-82.5737,3.0,5,0
It1sdsL61jZxbHd63gjdHA,Haggen Food & Pharmacy,34.4423650639,-119.8323377,2.0,28,0
Gu51tyVD55Yov3utUcGt_g,Corner Cafe & Deli,40.0891152,-75.0930323,2.5,33,0
Fe9WDVsrEM9H0X_aFDuYVA,Herbie's Restaurant,38.6517233201,-90.3414325043,3.5,169,1
SyfP3r24NyOICnWrAYZgeQ,La Fusion Cafe,40.1414648,-75.1167913,4.0,58,0
VenhDgh9fRrh9c0Xq0LacQ,66 Q-pot,27.8344865813,-82.7278812626,4.0,113,0
rG0UTjvbmVVsh9-kGzeliQ,City Limits Bakery & Cafe,36.0641919,-86.9393868,4.0,112,1
rL68WmPRYvmSjRaQUoKwkQ,Social Gastropub,38.7848922,-89.9791545,3.5,131,0
lJXfCo0ME730q0_qvO2l2g,Outback Steakhouse,28.026623549,-82.1492224,3.5,76,1
lS1dmSXpAtQqT04eRm9kiA,No Anchovies,32.2314107,-110.9584407,3.5,271,1
0bPLkL0QhhPO5kt1_EXmNQ,Zio's Italian Market,27.9161159,-82.7604608,4.5,100,0
uY7um5bWKhiVwzL0wakJXA,Manhattan Bagel,40.1696679,-75.1271508,2.0,22,0
MF5-JPr0auUkY_WLTTVUaA,Tacodelphia,39.9448608451,-75.1652079004,4.0,240,1
ZDg4siM2zLF4Rt8ZTqR8BA,John's Village Market & Deli,40.0462923,-75.3875288,4.0,51,1
qWZimITbVwNSGJZsuM47-Q,Pho Orchid Uptown,29.9345207214,-90.0806121826,3.5,81,0
dv4tx5H0-aPiIXSM2hJNhA,Hooters,40.090495,-75.3740399,3.5,5,0
clOOOBYvd1aUcFxA9uhFjQ,Tony Sopranos Pizza,40.1198350243,-74.8050415413,3.0,21,0
zzjFdJwXuxBOGe9JeY_EMw,Taste of the Islands,40.1255717,-75.3333947,4.0,47,1
zU4k_q6_ZX9gVYtvxtu4tw,Moes Southwestern Grill of Wesley Chapel,28.1874326,-82.3511227,2.5,26,1
9fNy_ulPeK74-a7Dnyg6xw,Angelo's Chicago Taste,38.765247,-90.3689636,3.5,68,0
gJ9YeSqAMMF0M0-y58j0Gg,Chick-fil-A,28.043274,-82.679081,3.0,75,1
196CWwMAtAcA21jYiMyRzg,Cafe Pontalba,29.957225266000002,-90.0638432191,3.0,560,1
TuRy46Cyb7MWjV7VM8VNYg,Kosmos Pizza,40.132814,-75.379524,3.0,71,1
xutp5J4DiKAZ8aM-yRH_fw,Tasty Tomato Italian Eatery,53.54263,-113.5671174,4.0,51,1
8MyjJ5ocf9VFjdscKrQu4A,Mudbugs Cajun Cafe,39.9784837,-86.1275897,4.0,162,0
MquXDiKxHB4NYv5r5KodOQ,B.GOOD,39.8788271,-74.919718,3.5,146,0
0JoB3ThhI-DS78-1Ks1EUQ,Hibachi 2 Go,39.9242167,-75.1703845,3.5,105,1
sNyHfboSOs-ESN76cYFfTA,Santorini Greek Island Grill,34.4119091,-119.842623,4.5,35,0
n5jsPRd2flEKEzTmf3Kl3Q,SharpShooter Indoor Shooting Range,38.5603639,-90.3013327,4.5,59,1
1wC41D8PLqOldFPUVAZ3tA,Jimmy John's,38.6356545,-90.2407013,2.5,43,1
PjknD8uD_0tisZQbomiYoQ,McDonald's,39.9498587626,-75.1695573452,2.0,48,0
1MeIwdbTnZOBFCKOrgaxuw,Ricardo's Italian Cafe,38.6172724,-90.2127841,3.5,80,0
caYHsI0eWE0UyEcSm04uMQ,Simply Delicious - Country Market & Deli,27.7808933,-82.6618794,5.0,89,1
H2nFgEFitRk7ltE8IRH0xA,Taco Bell,27.944918,-82.523213,2.5,42,1
rnioJAG4aQp2TJHUxLy7CQ,Pikpon Thai,39.7187175,-74.9710309,4.5,126,1
rH0FgPdxWWhH4YFz4mempg,McDonald's,38.586257,-90.276034,1.5,39,1
2fTfpN5SggLgW4LlzptMPg,Tzin Wine & Tapas,53.5410214625,-113.4992408752,4.5,116,1
-TCa3KBib07_1ko9L2Z0fQ,Yeoman's Cask and Lion,27.7698785,-82.6358084,3.5,63,0
Lzq-mUgmdLz8mVpb3gGarA,Buffalo Bell,32.1784358,-110.9686162,4.0,53,1
MnKgN5crTUuxROY2aoadtQ,Plush,38.6365897,-90.2263029,3.5,69,0
frsUjGnPi3uZausjo_1FIQ,Hacienda Restaurant & Bar,39.535435,-119.862883,3.0,69,0
A0zZI5AnaeK4-vKoc9ABmg,Aroy Thai,38.5738228,-89.9310173,3.5,157,1
JRoY9Mx2LghIki2Uo1SOJA,The Wine Tap,38.5137923,-89.9805554,4.5,93,0
lGbI4ub1FaTRh51GqmbXeA,Silver Peak Grill & Taproom,39.5258685,-119.814686,3.5,383,1
opVXuS10_bDDS32xYZCQQg,Sorelle Restaurant,28.3835233,-82.5515963,3.5,16,0
61YkH57gZYrRk1R5-P-AxA,Kebab Express,53.5179390899,-113.497134578,2.0,5,0
cNfeKIYIv07oxqVozMbjpw,Marathon,39.948486,-75.1573477,3.5,90,0
sVWUxesVKseXGq78UwwajA,Steak ’n Shake,28.2899929559,-82.711233436,2.5,45,1
_3VCzu9a79nrU0YA-WvUCg,McDonald's,27.9451718338,-82.519890368,2.5,47,1
WaP_umj3dFLzYicrOanRBA,Subway,29.9557975338,-90.0813517,2.5,5,0
B2TRCYPklp7a8Ipcz5y-BA,Halal Gyro King,39.95187,-75.159913,4.5,24,1
wqmAnbS2roEnhKHCHygrSw,Club 21,32.2600756,-110.9777207,4.0,56,0
xOBV_XGHqSXa2rJOovXuBA,McMichael's Pub & Grill,39.8966548,-75.1253164,4.0,10,0
mGpLYGly9TmJsWiELfHXYg,Raz'z Restaurant,35.986072,-86.549655,3.5,44,0
n_YT3s1qmiX7RFup7negTQ,Las Palmas,35.9498136,-86.8166855,2.5,38,0
Crwv3yAmCFweHFKQJJez5w,Favela Chic,29.9633359,-90.0576356,3.5,90,1
7l-j0MBJr8KR7Hzk4uaaAQ,Wingstop,30.0045163,-90.1884469,2.5,87,1
AdT6vMVYy2uFFfnYbWoAsw,NY Pie,36.330411,-86.5942905,4.0,123,1
lH3a8SaR1NCKk8KbwJpyAw,Romanza Of The Vine,39.70565,-86.0109981,1.5,16,0
pHBwvBG3iZdOfpLNZTkVWQ,Pasqually's Pizza,39.9545323,-75.2089392,4.0,96,1
TCHh4RIrvp7h2BucXt1kvA,Snap Custom Pizza,40.0081903078,-75.2907952666,4.5,190,0
py428kUHafrkuxL_jKjR_Q,Little Caesars,39.492097,-119.806538,2.0,35,1
S2qHo7frBbF7dWwmvxGZTg,iCafe,39.9581257518,-86.1156249046,3.5,7,0
cVBxfMC4lp3DnocjYA3FHQ,Paws The Cat Cafe,53.549633299999996,-113.5087799,5.0,20,0
Yh4OgbXQSpQ_ycK_FmNiGw,Suis Generis,29.9649909096,-90.0426163126,4.0,100,1
YT0A2VuGbOAkhvJmpPXuxQ,Texas Roadhouse,36.331238,-86.62272,3.5,87,1
jfIWqMrdWnPNORcDnQ7VNg,Chili's,39.5325979,-119.863847,3.0,188,1
E1zhwfAhjdgWVmRj6mMBMw,Cunetto's Corner Cucina,38.8183879,-89.9636021,3.0,17,0
uBDXcXlLR9IuRV1N2m0SPQ,Pho Street,39.9536619,-75.1754204,4.0,150,1
1_BzX6o0O6w_9yx9NczMrg,Wawa,40.0403385055,-75.2234230242,3.5,48,1
bKgyXSQUGA8IHGt8ne5NuA,Chipotle Mexican Grill,39.4774686077,-119.7931618635,3.0,160,1
uKEabBQrn0gLzvTppOrKIA,Casita Taqueria,27.7969762597,-82.6381678127,4.5,207,1
ZfWVso8VlT0VN14rxVHccQ,Candida's Pizza,40.154294,-75.2229125,2.5,22,0
qzCT_X5aTj8SkGpKdBYYdg,Chili's,27.8377176,-82.6832766,2.5,102,1
ngvE1G9IckUO-ljZBFo23w,Mumbai Bistro,39.947207,-75.1572515,4.0,217,0
rlBB-B-nAusvJYaPFlGcUw,Bagel Bin of Voorhees,39.8454961,-74.9413589,2.5,91,1
ntk3HonjsNzd2cY9o1RpZA,Famous Dave's,35.9621013,-86.8135886,3.5,59,0
9TJzfMc4gEKSUxfnGcj6dw,Table Top Cafe,53.4943631,-113.4428015,4.5,33,1
vHAjYdA3c4G3E7HKMl3OgQ,Barrister's Bagels,40.2122122,-75.4965045,3.0,93,1
wHaQoyF5TncRNxiUQraJMQ,Florida Subs & Gyros,27.9600935,-82.7534613,4.5,63,1
S_tu8JCeZsbpgJsqRFaSBg,KFC,39.9391849,-86.2352616,1.5,39,0
4TRaSx4vcKfhm9Jx-heiqg,Cleopatra Cafe,39.9563712,-75.2061225,2.0,56,1
7utsfp2dXJ09j8Gb9hAIvA,Suzy-Jo Donuts,40.1053723,-75.3404208,4.5,89,1
-SFSt3FkjGfavnyMpHsZPA,Enjoi Sweets & Company,27.8937596,-82.5251669,4.5,9,0
W57cR9a7XP6RX56MSWHJJA,Las Margaritas,29.95029,-90.074887,3.5,58,0
Tt4byMYA7FvAkQ3MigcJWQ,Mojitos Rum Bar & Grill,29.9618438,-90.0576285,3.5,74,0
kBbNlvMglJRrPmlpdCHLuw,Ybor Eats,27.9590802,-82.4406146,4.5,43,0
g3LweOTJlJoALtaShN4SLA,Barrel 55,43.6327333,-116.3538141,2.5,148,0
jz-A6Gq1pM-esuAEKqqSqQ,Raising Cane's Chicken Fingers- Arnold,38.4403418,-90.3734194,3.5,26,1
PSK9GlS4UYmY7WP31kjt6w,Bagger Dave's Burger Tavern,39.9798034,-86.0023115,2.0,54,0
zu4p6IZLSVn2Noto-vcwzw,East Beach Grill,34.4170185,-119.6689747,3.5,169,0
lXCFcmhoRsyW-mnzzl6fkA,Ledo Pizza,28.0795579172,-82.5071969056,4.0,112,1
A-8K66Kx7fMXkayG_3zdJQ,la Madeleine,30.0095891,-90.15963,3.5,126,1
oYzq49fG7jokPLQ38bFMOw,Hachi,40.266182,-75.225904,4.5,258,1
W0JwMDaPz4KxJPqiUuh45A,McDonald's,40.026761,-75.328401,1.5,74,1
94comc1YjKMNU-WSH-Fznw,Yakuza,38.6805692301,-90.497781965,3.0,32,0
ena3aLdMz2ym_OPVuTIJ2g,Broadway Bar & Grille,39.9309749,-75.2887695,4.0,49,1
Kzf6VUWTKtSBd4OWUfwlkg,Frosty Boy Drive-In,39.7220946,-85.8932609,4.5,54,1
cXsrd3SqPh778u2yaiAslA,Bono's Pizzeria,38.5896382,-90.2941959,4.0,152,1
QJfM8uRNy6KHhj6kIatzmg,Whitebox Eatery,38.6482593,-90.3329904,4.0,170,0
46_2e1hnQ4csLrYnhn6bkw,Whetstone Tavern,39.9408715785,-75.1510468125,4.0,166,0
sI0B9BdUVPXFtF27RI3Fdw,Wasabi Sushi,43.5821128,-116.174237,4.0,81,1
_rkjLrft2ZgHcLBLF9amXw,Uno Pizzeria & Grill,40.1345642784,-75.4485799227,3.0,138,1
4ulvTVp4_eXb3XVMrXfRyQ,Alfresco's,27.778450803,-82.6294136794,3.0,12,0
Lp7o7wv0-QtupZeZP0QcMg,Jerzee's Sports Bar & Pizzeria,40.106392,-75.160741,3.5,64,1
ubIwwAx-JxZmgSoJgW_0og,The Outpost Tap House + Tavern,27.9450397,-82.4691467,3.5,94,0
S1Zg0C2mo4D5jSsCw80yDg,Hardee's,38.6304737,-90.2853738,2.5,16,0
SZgkdhd837HkbtVFVmSMXw,Guido's Italian Restaurant,28.4918471,-82.5973869,3.5,128,1
h4C7s_Go9UKo5twaLIWc8A,Chiang Mai Thai Noodle,39.8703889,-86.1442602,4.0,185,1
69MquJNC3BpgOZvHtutZ-w,Catrina's,38.788255,-89.982093,4.0,105,0
vQwRn1BU24O7XHNyjkzDog,The Pines Tavern,40.11051051,-74.8369372,4.0,77,1
XXZqNGRUyGVLx8oNm6BtBA,Wild Garlic,39.5050426757,-119.7732187563,3.0,64,1
DUn-V3XYMeSTxwEELMn7Tg,Waffle House,39.8304992,-86.0405117,4.0,34,1
lV0k3BnslFRkuWD_kbKd0Q,Metro Diner,39.913046,-86.200355,4.0,175,0
NesMl0Tiq1FsPoX2LzHkNg,PJ Subs,32.2275777,-110.9351327,4.0,100,1
sxuv5uZU15UHGT_HB1xYxQ,Islands Restaurant,34.438119,-119.748456,3.5,197,1
Yas-A9Jf07TJCIcgZny04w,China City Restaurant,27.7846206,-82.6383517,2.5,14,0
P6_0KGFZO3K0qHSfhUuINg,Bernie's Restaurant & Bar - Hatboro,40.1757653,-75.1069665,3.0,201,1
exq7J5z3HJy8w7S4SvO66Q,Fiore Cantina Italiana,53.5233515,-113.511827,2.0,9,0
1E9o1SNo7UTf1XHTFPv1_Q,Franklin Juice Co,35.9326054453,-86.860662065,4.5,66,1
84gj5tMd_gxn9_rZBLmEIw,China Garden Restaurant,40.0253454,-75.3373564,3.0,12,0
WXX2EtysiTsZd7pzijpb0g,Finnegan's Pub,32.1235564,-110.9341191,3.0,70,1
Gf1EboxqdJ9SPsVJur93Cw,QDOBA Mexican Eats,39.7797445,-86.1728502,2.5,68,1
Ya5MeOlPuInWRTZ-CTwkDw,Tokyo Sushi Hibachi & Supreme Buffet,40.0952419,-74.9442648,3.5,19,0
unkGQNCeDkAUOaZAg8HC5w,Zaxby's Chicken Fingers & Buffalo Wings,28.0248379,-82.506782,3.0,49,1
at-NaeVYJ5VDG9pC4PXbSA,Thai Cuisine,28.4599263,-82.5412208,4.0,76,1
3C9l3PNoadQ9U2JEb-Qtpg,Bar Louie - Carmel,39.97782529,-86.14639061,3.5,186,1
Xd8wTHTsd5uXdDJDXlxY5w,Meadows Diner,39.7995547,-75.0649932,4.0,136,1
EImGEwaos0pIqyye1u6OSA,Dominic's Italian Grille,28.089266,-82.740484,3.5,48,0
XwPKw3mw214qDxJFfX-pgg,Mamma Maria's Restaurant & Pizzeria,40.3291535,-75.6299694,3.5,17,1
78e90HO_R40SyzBr4fnHSA,Primanti Bros - Indianapolis,39.7655226364,-86.1597495695,3.5,221,0
M4kHDHNzftSUtgpgyLlZ8w,Slice of Life Pizzeria,28.2900031,-82.6771702,3.5,68,1
W3pOGK9qIZJbA6CS0HRNcQ,HotBox Pizza,39.8695839,-86.1456129,3.0,107,1
EERwPZdemE21aIwYsadjTg,Mirko Pasta,36.1689571,-86.6851300108,4.0,306,1
qq4Zc5y76vfCxQQy4CLfrA,The Casino Grill,39.5267893,-119.8125674,4.0,38,1
gu9H6XoryCn07BfPsSdeSw,The Sweet Taco,39.9357331,-75.3516435,3.0,153,0
iX-B-N84nktxvhSwTYSfDw,Nauti Mermaid Crab House,39.9480691001,-75.1430340484,4.0,108,0
xCW-s1hBP23-HkyqW-kngA,Italian Kitchen & Cafe,27.881078,-82.328286,4.0,140,1
DGvkU7CkdBs6lNbncQmF3A,Franklin's,40.0110062,-75.189062,3.5,129,1
LkskzKzo_S8YmG1dGn4hag,Tijuana Flats,28.043321,-82.592416,4.0,104,1
Hb8bZ1xfIbmMfiMC-LTKOA,The Bakery House,40.017955,-75.311654,3.5,137,1
0ndzIekJs0PRPA5Aoz9sow,Morning Call Coffee Stand,30.0094943911,-90.1582181454,4.0,180,0
BrYoQyygyIb-FsVJ0AMpLg,A Matter of Taste,36.1266822,-86.7775881,4.5,29,0
PxEiXqMAzzvp8GFlb5EoLg,Grain Exchange,40.059508,-75.190838,3.5,239,0
E6WheRR9KwPwSs7k8Z7h0g,Wendy's,39.5185408,-119.7896711,2.0,19,1
x0hzVPfxWXRIu0yOSEnLCQ,Duck Donuts,39.89066,-74.92765,4.0,121,1
6UizqjvZhKZkQhHstXVPUg,China Empire,39.483857,-119.7469072,2.5,54,0
b-4xNydyGmdv2bGFOHTgdw,Garden Bakery,53.5496061,-113.4928653,3.5,45,0
n01xMNLylzLMUzBpB9lxZQ,The Latin Bistro,27.8767128,-82.3264072,4.0,24,0
Qi-A4ZgcEuSnq_8Fpfo_3Q,Our Lady of Guadalupe Mercado,34.4230803,-119.6840083,4.5,8,1
GYAX9mPGYx9VfwDiuIl_9Q,Nhu Y,39.938591,-75.156532,4.0,79,0
4EDFnzdMBdrL4tujAA2QZQ,Philippine Jeepney Grill,40.0575027,-75.0525701,3.5,12,0
k6NkyANDoAMSNpa9_VD8IQ,Rosa Mezcal,29.9316559894,-90.0736488057,4.0,76,0
v7ibuvyZutqZ7pjMCH1exg,Frank's Spaghetti House,40.056184,-75.061858,3.5,43,1
Snjg9ED5u3n-Fx0whMWAfA,Le's Vietnamese & Seafood,29.9757248874,-90.1758694457,4.0,24,0
jBCgQ6nZDsMCWU7eaSxOpw,Whaley's Blazin BBQ,28.137927,-82.4626332,4.5,58,0
x83J5JvK8BxYd3vs9gAPqQ,Unplugged,32.2219630971,-110.969274044,4.5,41,0
45tvAZaoMo0VhsJvPHf9sw,Lite Choice,39.9497521,-75.1674681,3.0,29,0
3OGzmGqWwsyGLkhnxrA9Pw,Gourmet Pizza Company,27.937948,-82.484684,4.0,185,1
xuXNf1lkTJ382-hp0HO5Cw,Philly's Best,28.4857114,-82.5762185,4.0,46,1
8bkSuPXdYW58QsUEOG77HQ,Taverna Food Spirits,39.8688431771,-86.1284977181,3.5,35,0
QlI4_BHwxb5UplGwd4vE0w,Fiesta Taqueria,27.9035372,-82.7457031,4.5,123,1
vsrryxBR2Jykl71qa1H6SQ,Caffe Primo,34.4173624,-119.6959549,4.0,114,0
brxzxPTpbukDPTlaq7gOMw,Wimpys Original,39.931526,-75.3879663,4.0,114,1
zhLv02GHgcHl0KPzA8UF1g,Lepore-Ba-Q,40.12944,-75.12843,3.0,26,0
YCwWrnOh8qUmQbgQ4p02AA,Alfredo's Pizza,39.9829917462,-75.3714380349,4.5,79,1
swKXtO22QjVIZTBU8UP7Pg,Subway,40.0085944,-75.2924158,2.0,13,0
CgAthB_K1fmD2OUpmYBRuw,N'awlins Jazz Cafe,29.920729,-90.09932,2.5,28,0
IAyHcNx5IHoLf3V4dlgFCw,Pagoda Noodle Cafe,39.9474496788,-75.1439342278,3.0,100,0
x8GM0uhLh90Vhbvn4WZVdQ,Henry's Cafe,40.2446646,-75.6476071,4.5,38,1
_O_KBH1MStcUkS1xk5pxsg,Franny Lou's Porch,39.9835674,-75.1293858,4.5,68,1
W6fCMUR2snAavhovt_gsZA,Dove Mountain Grill,32.4291417,-111.0803676,3.5,21,0
ryinOK7C290pGMskTdlulA,Tony Roma's,53.598369,-113.570688,2.0,27,1
TKE2vn4IXGs-EGKRu2rGrQ,Taqueria Dos Amigos,40.17883,-75.54711,4.5,17,0
X7YBx8CybmIPymZ0ThCmng,Ninth Street Deli at Howards,38.6005985,-90.2143307,4.5,128,1
lPrP8gnPk3496WYAZUI0YQ,El Tumi Peruvian Restaurant,39.4933266,-119.7900715,3.5,83,0
h_KsyPb9aw3xDuagYbljMA,W G Grinders,39.9720756,-86.1512477,3.5,6,0
n88rreifvghMYJVUaWMUXg,Papa John's Pizza,40.2556464,-75.6616293,2.0,12,1
zFk38MOcCRPXf8Ul94vmSQ,Spatola's Pizza,40.2733805,-75.2213101,4.0,66,1
-7GDqSUaXrpC8Ql7nDBxWA,B2 Bluefin,40.0079839104,-75.2126064939,4.0,92,0
sQPNcVLTkI0s6mpNiBEVdg,Knockouts Bar and Hookah Lounge,39.4932040221,-119.79061335,3.5,18,0
ejRuEF2j8_w5qQbwEQ8GfQ,Villagio Pizza Cafe,39.9851818,-75.1067498,3.0,47,0
KA9WEoGHr9Ae0pFXZqzylQ,Rue 13,38.6322076,-90.1987397,3.5,28,0
GJRL2aR72jk7xnQh3hn1fA,Cracker Barrel Old Country Store,40.1006305,-75.29534,3.0,215,1
YE3E3nFsPo0O7gpMpOL18A,T J Courtney's Restaurant and Catering,36.2270382325,-86.514847411,3.5,112,1
TRxR32_T_7Ly_RW4Ke97fw,Hon's Wok,38.6387913,-90.2587654,2.5,140,1
PdMXmOWDRHICAx6SLgu1dQ,24,39.9515211,-75.1798731,3.5,111,0
QyWxTsVvvqSEpU1KNblRbQ,Say Cheese,39.9613329598,-75.1550674438,4.0,34,1
--ZVrH2X2QXBFdCilbirsw,Chris's Sandwich Shop,39.9972988,-75.2922074,4.5,32,0
5Z-z5-ZYmrJ8RW_oOpp9lQ,Oaks Italian Deli & Pizzeria,40.1352041985,-75.4517551692,3.5,70,1
xCXGV3wEvYd4xBGx8ZRFQA,La Va Cafe,39.9449991381,-75.1770997246,3.5,201,0
6g3pHoyXeMXFC7WD0rbJMA,Happy Panda,40.1013209,-75.0287078,3.0,14,1
oo88TE2jCxYfIen_oWFjdA,Shank Charcuterie,29.9686757773,-90.0528472831,4.5,44,0
94T-JvAH2dq64yh4Eqzhkw,Dominic's,39.9295852,-75.3822259,3.5,24,0
k3CjpU8COgn--pueiZm3XA,La Monarca,38.674382,-90.356398,4.0,44,0
laV1qL3qhGFOfkPbHo3SVQ,Joe Boccardi's Ristorante,38.5223473,-90.4727923,3.5,40,1
20NaJNRHxz64JWrP7AQ5Gg,Duke's Bbq,40.1088229,-75.3252523,3.0,16,0
g_0U8kzf5iTMJ-I9E3MWlA,McDonald's,27.8214215199,-82.7289658785,2.0,32,1
sjueAFshWHWkKn5a1AymuQ,District Tavern,27.948062,-82.446824,4.0,227,1
2y_CdkxEOJEJGyJApfCYpA,Rode's Fireside Restaurant & Tavern,39.7532524,-75.3024859,3.5,104,1
DrL3dsQ9bI3mhHUd3Q1qcQ,Lit Italian Wine Bar,53.5416717666,-113.4994769096,3.5,18,0
psI9u_iVuWFcchWheFAySA,Plate Restaurant and Bar,40.0080688,-75.2880533,2.5,61,0
Rf7ChSNhY3U3SzBVxpup1w,Billingsgate Fish Co.,53.5100145,-113.4976032,3.0,16,0
l8uzbLGk9CLjElcWGyBZ0Q,Transcend Coffee - Ritchie Market,53.51263,-113.476381,4.5,32,1
E-DcL1u330qwvoxXhipmUQ,George's Sandwich Shop,39.9388315986,-75.1579846257,4.0,93,1
yWx7-4lHvyT0TpIO7pLA3Q,StarLite Sapphire,27.7507274,-82.7428137,3.5,45,1
TCROPjxfzCZzrQjqLqstSg,Red Cup Cafe & Hookah Lounge,39.9625769974,-75.1447479799,4.0,53,0
wLHodvVFLTgK3nl2XG8OCw,Mangia Nashville,36.1261546,-86.7758338,4.0,192,0
xT41eqUSsM_MDE1Vjhq20A,SoFresh,27.9396220218,-82.4834168043,4.5,306,1
rPKaAsWOJgWvde3aqU5mLQ,Sun-Rise Baking Company,32.2729604,-110.9604898,4.0,7,1
WK5Lzv1dte6XMm8Ov17THA,The Craft House,39.9984449,-75.762203,3.0,75,1
hfN3l0gJ-XszD1XFGNvA6A,Akira,39.91576,-75.068382,3.0,40,0
6h98Tb1tE6hcrS-Ho_MKLw,Darrell and Sharon's Park Street Diner,27.8116580618,-82.753661832,4.0,23,0
mMPvgBgqON8pia_4AgGTUw,Kobe Japanese Steakhouse - Tampa,28.0787239,-82.5061726,4.0,305,1
ofIygj_t4vvNd4WD9Gl-Ng,Joey's Pizza,39.9943862599,-75.7580670837,4.0,75,1
YpWZGcSERoROrulARYyxTg,Famous Toastery,40.0229855,-75.6289465,3.5,115,0
WStdI9NGcytFT7PEz6aS3g,Saint Louis BBQ & More,38.5323025,-90.3103977,1.5,27,0
rZZ6gtsqBVkpSLoZ9EZ_1A,KFC,28.0494352,-82.69904,1.5,28,0
NA3oFJQBle5iulhYu2b1tA,Isaacs World Famous,28.0184918,-82.4510935,4.0,44,0
TO1twT7_FLMbNeDm3KNNRw,F & M Delicatessen,39.930791,-74.9770416,3.5,67,1
q6661I3CGW0UB740E5Zjfw,India House,34.4165402,-119.6945773,2.0,136,0
vLT1KtrA9bWvjFOg-0xVIg,Pieology Pizzeria,34.4304533,-119.8723449,3.5,131,0
uZHAl4kFY2lfHcDMC5vQjA,Port of Subs,39.5771207,-119.7406585,4.0,35,1
3PlpoDgeAQAreL8FM2LelA,Kauboi Izakaya,39.5118968857,-119.806008659,4.0,312,1
O3Gsne_JJ24yMvLrDoNjqA,Nirvana Fusion,40.1637293,-75.1110568,4.0,112,0
sKQ0KYon7eT6xEnCpb18aw,Chili's,39.8119684472,-75.5490507141,3.0,25,0
isbeaPln-E0DdffLRsuFhw,Francisco's On The River,40.3136566,-74.8957796,4.0,109,1
FRYkg_JvsWU9xIXZsEZcVA,Altamura,29.9333877563,-90.079498291,3.5,27,0
tqc44WEwLNpESFFtQOzPiQ,Great Rivers Tap & Grill,38.9032424,-90.1311499,3.5,24,1
yghCRxGNOlD6-iCZVoVL8w,OPA! of Greece West Edmonton Mall - A,53.5230380164,-113.6202675308,3.5,11,1
DszOO6k_s2wuGhTw2AsUdA,Olive Garden Italian Restaurant,38.601598,-89.987977,3.0,97,1
GGR4s8VPvTND6mGUfiGQSg,Calypso Restaurant,29.9630419,-90.2230101,3.5,7,0
QExWORi8kxwQGdXlFXRc-Q,Frank's Diner,28.391744,-82.667798,3.0,30,0
XEuryfYZwcivUtijaZ5laQ,Acme Oyster House - Harrahs,29.950570141,-90.065639019,3.0,205,0
uvQQlr5ye4ReQTxuyB7kCA,Poseidon,29.934332128,-90.0799834267,4.0,198,1
AM7gPGpRbEjEkjmsmQXb6w,Restaurant des Familles,29.7781689,-90.0985908,4.0,167,1
Rl7W2JPAUWFo2ZZdVeGAWA,Koffee Korner Cafe,40.2419927,-75.2829764,3.5,59,0
DJJtybSWY0BygESsSrabqg,Texas Wieners,39.9243351,-75.1708176,4.0,42,0
CYJRj0lF120-WC3UKsuh5A,Cafe Fiorello's,39.9657679,-75.5926251,3.5,115,1
mKZEuPNLVe4yRL0UfxFPTg,Season's Fresh,28.0812683681,-82.4279611613,4.5,104,0
q40E5X_HdjeM_Kl1BE7Gtg,Orchid Thai Foods,28.1184025,-82.3816714,4.5,62,0
o1TR7rOmAcxiNBLEM3kEqw,Savvy Jack's Southern,28.051882,-82.392915,3.5,98,0
sjNVeNqhDjEFHoOybnt2ug,Meun Fan Thai Cafe,34.441504923,-119.8230233788,3.5,157,1
2cpdYwMOeKQtiMDvm39nKg,Cody's Beef 'n Beans,32.264711,-110.931879,3.5,122,0
d1HcINr1Sm0ZSrU6lNl2kw,Publix Super Markets,28.050044,-82.778488,4.0,16,1
buJQ6k-bLrycLwbB5Xp5YQ,JH Cafe,30.0021853,-90.1726033,4.5,58,0
pIY1UltfmUX--6yrAhg-mQ,Jack's Steaks and Shakes,39.960562,-75.604604,2.5,25,0
SPfdgCODDJE1zTj5fACOGw,Bully's Smokehouse,38.4454101,-90.2205044,3.5,58,0
4PfDVXUiHTslBmKpp1Ckiw,Shoney's Restaurant,36.2178423,-86.6940374,1.5,46,1
WHRrhggfj5x3URXVrFqVcA,Cortina Ristorante & Bar,39.529722,-119.812778,3.0,5,0
JQ6mPqD6-o2RjacKYtJ3PA,Apollo Burger,36.3180770874,-86.6009381041,3.0,51,0
oFT-uwZJdBngbBXONAjbQQ,Phan's Kitchen,39.7779080136,-85.9858202182,5.0,105,0
rEa9VdpOeqd6WkavK5vEZQ,Andre's BBQ and Seafood,39.88521,-86.20977,4.0,9,0
3m72qrDirMZDOhaG3FR6HQ,Pancheros Mexican Grill,39.848349,-74.976908,3.5,97,1
CAQFxeImeXVWnlBL4BzZwQ,Michaelangelo's Pizza Restaurant,39.8955529,-75.0173948,4.0,64,1
Uu7jwsfsaU-VJrV8Kpb4uw,The Wooden Spoon Cafe and Bakery,40.1330519269,-75.516242981,4.0,21,0
D7Os2-9ApTGmNyzidqfwGA,"The Ritz-Carlton Spa, New Orleans",29.9550178,-90.0709905,4.0,66,1
xtbAqP_Ftb3kYJ53Hv6H5w,Top China Buffet,39.8013453,-75.5051797,2.5,5,0
mcwiecpP3n5ED-8xKF5_1A,Popeyes Louisiana Kitchen,38.6114333852,-90.3367999215,2.0,75,0
7pxE4BFDibv6Q7MBbNOPQA,Los Rancheros,39.8829229,-86.2435883,3.5,45,1
TGHxU9bjU4vPpAqOdD0Eew,Big Woody's BBQ,38.777347482,-90.5296611786,4.5,185,1
pwblP3G6LkVT03I4z9kb0A,Mad Dogs,34.4169152,-119.6958779,3.0,67,0
X9e-lTfOeY0z6C-VAiSf5Q,Dickey's Barbecue Pit,27.790827399,-82.725962,4.0,121,1
DK7buvGqeO9p3L7F7JiaGg,Bertucci's,40.1268066,-75.4063732,2.5,39,0
dgkCN6XT4bNOjHWLQPtUWw,Elicia's Pizza,38.5014587,-90.3328794,2.5,8,0
GtfM73QC1y4_j8ghKPSt_w,Parrot Pete's,29.8873974,-90.0557048,2.5,98,0
MKy5T5exCdH4IUVlYPtWkw,El Taco Torro,39.834095,-86.0276615,3.5,14,1
sqc0XZr0CZSmqb7Rw8skCQ,The Pasta House Co,38.4860434,-90.5047009,4.0,35,1
mygIk3l_ShNNB-QbWlrRyg,Zydeco's,29.8777671,-90.0173044,3.5,161,1
pEYs1oVeJ6YM2SG5WEr5Pg,Burger Theory,39.675040703,-86.3103263801,4.0,86,1
5sFKSdkKNXHzr4sA5-VCpw,Brunchies,39.9518903,-86.2778192,2.5,20,0
swUT7AsP776D0XEBQrSznA,Bubba Gump Shrimp Co.,53.5224467245,-113.627608,2.5,132,1
NxJk32DFY06EbFAvcQJumw,Singha Song Thai,29.9420023,-90.1297191,3.5,30,0
xqEX7nzaESYmwyS5f_UI9g,Miami's Best Cuban By Los Maruchos,27.8377084637,-82.7872937707,4.5,42,0
-rTJCKclkU_ZnoQb4oKa9w,Fray's Donut House,27.820184,-82.655327,4.5,60,1
4bxby6xcP1iP8oXrdvsW7w,Main Street Pizzeria & Grille,40.243567,-75.2875431,3.5,51,1
pOShvapemo3TgL6-GbZ1VA,Capo De Monte Italian Market,27.8489918,-82.7875867,4.5,41,0
D4PD-ZKV06keByyoouJzhg,Mack's Boardwalk Pizza,39.9156866,-75.1640201,3.0,51,0
0a8t_Th0jtWUMmtq0q2dqA,DK Sushi,39.9531984523,-75.1928739332,3.5,30,1
yS0TsUzKBQlHQCZZeBrxww,Tortas El Guero,39.8244846,-86.2709327,4.5,176,1
_JXfCdMu1TFblbhJ5KT7fw,Basil Spice Thai Cuisine,38.5998426,-90.2429018,3.0,222,0
PPcz-0UtIJ8O7xDT551y2g,Intermezzo By Wine Cask,34.4211464,-119.6988864,4.5,141,1
F87os-6oNyUAEeGxQJKFkw,McLeod Tavern,53.5427738,-113.4834765,2.0,13,0
zxuVnNVAUm16Sro0dS_lmg,Roundabout Grill,39.5278513,-119.8143374,4.0,244,0
U3WKSiu7OquPEnRuEchthQ,Sunshine Cafe,27.7123779,-82.3733775,3.5,31,0
0yElmJZHbfRJt4gmdot8Og,Henpeck Village Market,35.871866,-86.8456237,3.0,48,0
_UaTldka1sodVkg-pcNlZg,Pearl Diver,36.1890972766,-86.7463563129,3.5,151,1
0z-pNv_92L_-LiYV_XlcSw,Brawley's Restaurant,32.2502273843,-110.8243817836,3.5,90,1
1IjHo5kaSdFxJkJotU4O7A,Sociale Italian Tapas & Pizza Bar,27.884430000000002,-82.48627,4.0,125,0
_FlhRk9KjdXyE0sLxUdEBQ,Commonwealth Kitchen,40.04186,-75.0275663,3.5,38,0
eqBiSzVMyUoMtUfts4hrdA,LeRoux's Chicken Shack,30.0240155,-90.024042,3.5,19,1
vndmRdCChdud7EywJTvy7w,Avalon Bistro,40.003693,-75.707552,3.5,26,0
9C2rpb56aQvW0ViZHK9sPw,Home Plate Sports Pub,32.206315,-110.887843,3.5,56,1
Vj_72qKqpL10ECZfbHDyBw,Firehouse Subs,39.90473,-86.06554,3.0,16,0
3sdlpskDaXr1P59BYjGoFw,Giovani Pizza,39.9512536,-75.1661282,3.5,32,0
g_nLH7QGP3_l1eE-7JWhwA,Smees Alaskan Fish Bar & Marketplace,39.4742257,-119.7795102,4.5,97,0
xjHAl5eQqyO0YK7pXDx7Hw,Westside Pizza,43.5900158,-116.2873662,4.0,55,1
tP6tk-M8y09QKIoOO0JIbw,Shark Tales,27.7410758,-82.7541737,3.0,96,0
2A35Yi7mHQu9uT61M7VQow,Los Nietos,36.230388,-86.725432,3.5,40,1
Z4DCewJOyj4aaC6f1JtRHw,Fiesta Azteca,36.0216657173,-86.5784608573,4.0,15,0
JgpnXv_0XhV3SfbfB50nxw,Joe's Pizza,27.9605142,-82.506127,4.0,35,0
5RtAJPXFLTzwALIe1mtNuA,Piree's Piri Piri Grill,39.7470696,-75.6986818,4.0,77,0
RwOV1rfT7vA1qw8vgf-yBA,Tin Can Tavern and Grille,38.6024149,-90.2618122,3.5,63,0
-2Axhv9AZ_n7qjQefECpVw,Greek Sotir Grill,36.2166079,-86.5963643,3.5,21,0
XQWZQjC73fCTRGWnD18-Eg,Mac Mart,39.9514489,-75.1705213,4.0,321,1
TCAaeZi4m_RwUTTbZseRmg,Hearthside,39.9156783,-75.0664164,4.5,161,1
Jvmj49D0GGnvCpjN0LXqEg,Angie's Restaurant,27.9654261,-82.796093,4.0,55,1
BDYL4lMlT6fpKgiNlJRclA,Red Lobster,38.600549,-89.992023,3.0,79,1
wH3UmxaHNV_Aj59A8g-yYg,China Wok,39.756599,-75.353474,3.0,17,1
hnf3X-auqHuxd56YemuSqQ,Pizza Land,40.173414,-74.987208,4.0,14,0
s688oKDwUayG5rjHbPwK7w,Two Tony's Restaurant,30.0209829768,-90.1148233424,4.0,110,1
ogFDedRYxxe9LQeCo3VH7w,Circle S BBQ,28.370366,-82.686436,4.0,75,1
5uTEok3Z0YICni8NxeDZXw,Raising Cane's Chicken Fingers,29.944002,-90.06213,4.0,36,1
5QCLmv-JrdY0ZGc_D5__iw,Wheel Cafe,28.019385,-82.7742533,4.5,68,0
-eLCHvtz99fc985UNL1rTA,Outback Steakhouse,39.9117677,-86.2202697,3.5,17,0
Wc-c_hQK4vFCl9keeVTUZw,Felix's Restaurant & Oyster Bar,30.023792,-90.1136223,3.5,255,1
STNGwWzdwhflVV1QRyg18g,Great American Steakburger,32.2593958692,-110.7994099786,3.5,26,0
TTsBa6e2qgIEkiFQfYLmYA,Twistee Treat - New Tampa,28.1440679511,-82.3539949058,3.5,70,1
f8GG-nvuzMpcGIs3cbKUkw,Mexico City Grill,39.9575011,-86.0383534,3.5,63,0
lTVHJAvtFQbQb6cPstEXyA,China Bowl & State Street Cafe,34.4235663,-119.6925452,2.0,61,0
4BVjCMSKc4eJGfJldPB_hA,Fired Up BBQ,53.498819,-113.486856,3.5,53,0
ypEtkQK37INcwFgyCwiFiA,30 Main,40.0475853,-75.4421317,4.0,54,1
5nqmmrrm5Ux4i21w-xndPQ,Howards In Soulard,38.6006405,-90.2143995,4.0,57,0
fMsfxOQR01YZPRCnqoNuww,Northwest Coffee Roasting Company,38.6534324,-90.3477503,3.5,65,0
isvL0ni23esix-j94Gw5wQ,The Stuffed Crab,30.0064852,-90.1796513,4.5,34,0
L5iPk3oEYcNjICkKgtJCFw,Super Gyros & More,32.2214078811,-110.8092155437,4.0,23,0
0YiRkVMR2cg17hk9u6nGhg,Elicia's Pizza,38.5982131,-90.2367192,2.0,59,1
VYTFqb1NVLleeStQaUEP0Q,Burger Bar at Lumiere Place,38.6318800295,-90.1843530734,3.5,66,0
T8lxi3V2avTVXCanVkAFNg,Pizza Hut,39.9130548,-75.149704,1.5,25,0
XleIcqVgh3iBeM4s-rdy6g,Javan's,34.4122089,-119.8553799,4.0,30,0
yfxupsPE3O3BL_fWQwJUAw,Umi Japanese Restaurant,35.8622272,-86.8448962,4.5,118,1
e1jylvnhcMVr1ER8PO4dpA,Black Diamond BBQ & Catering,39.872923,-86.0803828,4.0,90,0
zOXvoQVFElBEhz__YT6VNw,Logan's Roadhouse,36.295855,-86.699384,2.0,62,0
dPfxNIJeHLKpny0GKtAsXg,Estela's Mexican Restaurant,27.8663549,-82.642395,2.5,34,0
wCluBbW9nzS7MEMFltMwJw,Tasties,39.9717941,-75.2261989,2.5,106,1
0_fd3nMhIVlJyLV76dTCAQ,Krystal,36.0152661,-86.7034410685,2.5,9,0
3BJxm-HnvzdwD1zjmSbmyQ,Golden Chopstick Chinese Restaurant,39.963077709,-75.1680274529,3.0,137,1
5QKzE17vyeQbxtZs-yKV1g,Le Saigon,40.041541,-75.4793663,3.0,71,0
k4gi0CDSas1glukpWHtoFg,The Flying Bridge,27.730499285,-82.7449756747,3.5,62,1
fMOVZ-u5IqfJ-lNOCLVm7g,Gin Korean BBQ,30.005691,-90.1607273,3.5,123,0
PW5eZM5RAQEhy3wgovChhQ,Cafe Victoria's,39.958422,-75.158257,3.0,29,0
